{
   "type": "FeatureCollection",
   "features": [
  {
    "type": "Feature",
    "geometry": {
       "type": "Point",
       "coordinates":  [ 63.13329964,34.98300013 ]
    },
    "properties": {
    "city":"Qal eh-ye Now",
    "city_ascii":"Qal eh-ye",
    "pop":2997,
    "country":"Afghanistan",
    "iso2":"AF",
    "iso3":"AFG",
    "province":"Badghis"
    }
  },
  {
    "type": "Feature",
    "geometry": {
       "type": "Point",
       "coordinates":  [ 65.25000063,34.5167011 ]
    },
    "properties": {
    "city":"Chaghcharan",
    "city_ascii":"Chaghcharan",
    "pop":15000,
    "country":"Afghanistan",
    "iso2":"AF",
    "iso3":"AFG",
    "province":"Ghor"
    }
  },
  {
    "type": "Feature",
    "geometry": {
       "type": "Point",
       "coordinates":  [ 64.35999955,31.58299802 ]
    },
    "properties": {
    "city":"Lashkar Gah",
    "city_ascii":"Lashkar Gah",
    "pop":201546,
    "country":"Afghanistan",
    "iso2":"AF",
    "iso3":"AFG",
    "province":"Hilmand"
    }
  },
  {
    "type": "Feature",
    "geometry": {
       "type": "Point",
       "coordinates":  [ 61.88699752,31.11200108 ]
    },
    "properties": {
    "city":"Zaranj",
    "city_ascii":"Zaranj",
    "pop":49851,
    "country":"Afghanistan",
    "iso2":"AF",
    "iso3":"AFG",
    "province":"Nimroz"
    }
  },
  {
    "type": "Feature",
    "geometry": {
       "type": "Point",
       "coordinates":  [ 65.86669865,32.63329815 ]
    },
    "properties": {
    "city":"Tarin Kowt",
    "city_ascii":"Tarin Kowt",
    "pop":10000,
    "country":"Afghanistan",
    "iso2":"AF",
    "iso3":"AFG",
    "province":"Uruzgan"
    }
  },
  {
    "type": "Feature",
    "geometry": {
       "type": "Point",
       "coordinates":  [ 68.41670453,32.85000016 ]
    },
    "properties": {
    "city":"Zareh Sharan",
    "city_ascii":"Zareh Sharan",
    "pop":13737,
    "country":"Afghanistan",
    "iso2":"AF",
    "iso3":"AFG",
    "province":"Paktika"
    }
  },
  {
    "type": "Feature",
    "geometry": {
       "type": "Point",
       "coordinates":  [ 71.15000459,34.86600004 ]
    },
    "properties": {
    "city":"Asadabad",
    "city_ascii":"Asadabad",
    "pop":48400,
    "country":"Afghanistan",
    "iso2":"AF",
    "iso3":"AFG",
    "province":"Kunar"
    }
  },
  {
    "type": "Feature",
    "geometry": {
       "type": "Point",
       "coordinates":  [ 69.54000364,36.72999904 ]
    },
    "properties": {
    "city":"Taloqan",
    "city_ascii":"Taloqan",
    "pop":64256,
    "country":"Afghanistan",
    "iso2":"AF",
    "iso3":"AFG",
    "province":"Takhar"
    }
  },
  {
    "type": "Feature",
    "geometry": {
       "type": "Point",
       "coordinates":  [ 69.33330065,35.01669608 ]
    },
    "properties": {
    "city":"Mahmud-E Eraqi",
    "city_ascii":"Mahmud-E Eraqi",
    "pop":7407,
    "country":"Afghanistan",
    "iso2":"AF",
    "iso3":"AFG",
    "province":"Kapisa"
    }
  },
  {
    "type": "Feature",
    "geometry": {
       "type": "Point",
       "coordinates":  [ 70.16670052,34.65000001 ]
    },
    "properties": {
    "city":"Mehtar Lam",
    "city_ascii":"Mehtar Lam",
    "pop":17345,
    "country":"Afghanistan",
    "iso2":"AF",
    "iso3":"AFG",
    "province":"Laghman"
    }
  },
  {
    "type": "Feature",
    "geometry": {
       "type": "Point",
       "coordinates":  [ 68.96670354,33.9667021 ]
    },
    "properties": {
    "city":"Baraki Barak",
    "city_ascii":"Baraki Barak",
    "pop":22305,
    "country":"Afghanistan",
    "iso2":"AF",
    "iso3":"AFG",
    "province":"Logar"
    }
  },
  {
    "type": "Feature",
    "geometry": {
       "type": "Point",
       "coordinates":  [ 68.04000051,36.26100015 ]
    },
    "properties": {
    "city":"Aybak",
    "city_ascii":"Aybak",
    "pop":24000,
    "country":"Afghanistan",
    "iso2":"AF",
    "iso3":"AFG",
    "province":"Samangan"
    }
  },
  {
    "type": "Feature",
    "geometry": {
       "type": "Point",
       "coordinates":  [ 68.79999663,34.45000209 ]
    },
    "properties": {
    "city":"Mayda Shahr",
    "city_ascii":"Mayda Shahr",
    "pop":35008,
    "country":"Afghanistan",
    "iso2":"AF",
    "iso3":"AFG",
    "province":"Wardak"
    }
  },
  {
    "type": "Feature",
    "geometry": {
       "type": "Point",
       "coordinates":  [ 62.59177608,34.48676963 ]
    },
    "properties": {
    "city":"Karokh",
    "city_ascii":"Karokh",
    "pop":14388.5,
    "country":"Afghanistan",
    "iso2":"AF",
    "iso3":"AFG",
    "province":"Hirat"
    }
  },
  {
    "type": "Feature",
    "geometry": {
       "type": "Point",
       "coordinates":  [ 65.73830237,36.65798077 ]
    },
    "properties": {
    "city":"Sheberghan",
    "city_ascii":"Sheberghan",
    "pop":74441,
    "country":"Afghanistan",
    "iso2":"AF",
    "iso3":"AFG",
    "province":"Jawzjan"
    }
  },
  {
    "type": "Feature",
    "geometry": {
       "type": "Point",
       "coordinates":  [ 68.70111894,35.95107302 ]
    },
    "properties": {
    "city":"Pol-e Khomri",
    "city_ascii":"Pol-e Khomri",
    "pop":41029,
    "country":"Afghanistan",
    "iso2":"AF",
    "iso3":"AFG",
    "province":"Baghlan"
    }
  },
  {
    "type": "Feature",
    "geometry": {
       "type": "Point",
       "coordinates":  [ 66.89973018,36.75011985 ]
    },
    "properties": {
    "city":"Balkh",
    "city_ascii":"Balkh",
    "pop":147426,
    "country":"Afghanistan",
    "iso2":"AF",
    "iso3":"AFG",
    "province":"Balkh"
    }
  },
  {
    "type": "Feature",
    "geometry": {
       "type": "Point",
       "coordinates":  [ 64.77009273,35.93022158 ]
    },
    "properties": {
    "city":"Meymaneh",
    "city_ascii":"Meymaneh",
    "pop":199795,
    "country":"Afghanistan",
    "iso2":"AF",
    "iso3":"AFG",
    "province":"Faryab"
    }
  },
  {
    "type": "Feature",
    "geometry": {
       "type": "Point",
       "coordinates":  [ 65.10149369,36.93165916 ]
    },
    "properties": {
    "city":"Andkhvoy",
    "city_ascii":"Andkhvoy",
    "pop":50469,
    "country":"Afghanistan",
    "iso2":"AF",
    "iso3":"AFG",
    "province":"Faryab"
    }
  },
  {
    "type": "Feature",
    "geometry": {
       "type": "Point",
       "coordinates":  [ 66.8867594,32.11226341 ]
    },
    "properties": {
    "city":"Qalat",
    "city_ascii":"Qalat",
    "pop":12191,
    "country":"Afghanistan",
    "iso2":"AF",
    "iso3":"AFG",
    "province":"Zabul"
    }
  },
  {
    "type": "Feature",
    "geometry": {
       "type": "Point",
       "coordinates":  [ 68.41782873,33.56331179 ]
    },
    "properties": {
    "city":"Ghazni",
    "city_ascii":"Ghazni",
    "pop":129892.5,
    "country":"Afghanistan",
    "iso2":"AF",
    "iso3":"AFG",
    "province":"Ghazni"
    }
  },
  {
    "type": "Feature",
    "geometry": {
       "type": "Point",
       "coordinates":  [ 70.57924719,37.12976076 ]
    },
    "properties": {
    "city":"Feyzabad",
    "city_ascii":"Feyzabad",
    "pop":52490,
    "country":"Afghanistan",
    "iso2":"AF",
    "iso3":"AFG",
    "province":"Badakhshan"
    }
  },
  {
    "type": "Feature",
    "geometry": {
       "type": "Point",
       "coordinates":  [ 68.87252966,36.72795066 ]
    },
    "properties": {
    "city":"Kondoz",
    "city_ascii":"Kondoz",
    "pop":210855.5,
    "country":"Afghanistan",
    "iso2":"AF",
    "iso3":"AFG",
    "province":"Kunduz"
    }
  },
  {
    "type": "Feature",
    "geometry": {
       "type": "Point",
       "coordinates":  [ 70.43610347,34.44152692 ]
    },
    "properties": {
    "city":"Jalalabad",
    "city_ascii":"Jalalabad",
    "pop":401697,
    "country":"Afghanistan",
    "iso2":"AF",
    "iso3":"AFG",
    "province":"Nangarhar"
    }
  },
  {
    "type": "Feature",
    "geometry": {
       "type": "Point",
       "coordinates":  [ 69.16791215,35.01826174 ]
    },
    "properties": {
    "city":"Charikar",
    "city_ascii":"Charikar",
    "pop":53676,
    "country":"Afghanistan",
    "iso2":"AF",
    "iso3":"AFG",
    "province":"Parwan"
    }
  },
  {
    "type": "Feature",
    "geometry": {
       "type": "Point",
       "coordinates":  [ 69.21462764,33.60005373 ]
    },
    "properties": {
    "city":"Gardiz",
    "city_ascii":"Gardiz",
    "pop":82680.5,
    "country":"Afghanistan",
    "iso2":"AF",
    "iso3":"AFG",
    "province":"Paktya"
    }
  },
  {
    "type": "Feature",
    "geometry": {
       "type": "Point",
       "coordinates":  [ 67.52103593,34.82106447 ]
    },
    "properties": {
    "city":"Bamian",
    "city_ascii":"Bamian",
    "pop":61863,
    "country":"Afghanistan",
    "iso2":"AF",
    "iso3":"AFG",
    "province":"Bamyan"
    }
  },
  {
    "type": "Feature",
    "geometry": {
       "type": "Point",
       "coordinates":  [ 68.69925858,36.13933026 ]
    },
    "properties": {
    "city":"Baghlan",
    "city_ascii":"Baghlan",
    "pop":163598.5,
    "country":"Afghanistan",
    "iso2":"AF",
    "iso3":"AFG",
    "province":"Baghlan"
    }
  },
  {
    "type": "Feature",
    "geometry": {
       "type": "Point",
       "coordinates":  [ 62.09681921,32.39172955 ]
    },
    "properties": {
    "city":"Farah",
    "city_ascii":"Farah",
    "pop":58604,
    "country":"Afghanistan",
    "iso2":"AF",
    "iso3":"AFG",
    "province":"Farah"
    }
  },
  {
    "type": "Feature",
    "geometry": {
       "type": "Point",
       "coordinates":  [ 62.16999304,34.33000917 ]
    },
    "properties": {
    "city":"Herat",
    "city_ascii":"Herat",
    "pop":439232.5,
    "country":"Afghanistan",
    "iso2":"AF",
    "iso3":"AFG",
    "province":"Hirat"
    }
  },
  {
    "type": "Feature",
    "geometry": {
       "type": "Point",
       "coordinates":  [ 67.10002803,36.69999371 ]
    },
    "properties": {
    "city":"Mazar-e Sharif",
    "city_ascii":"Mazar-e Sharif",
    "pop":365432.5,
    "country":"Afghanistan",
    "iso2":"AF",
    "iso3":"AFG",
    "province":"Balkh"
    }
  },
  {
    "type": "Feature",
    "geometry": {
       "type": "Point",
       "coordinates":  [ 65.69494584,31.61002016 ]
    },
    "properties": {
    "city":"Kandahar",
    "city_ascii":"Kandahar",
    "pop":613871,
    "country":"Afghanistan",
    "iso2":"AF",
    "iso3":"AFG",
    "province":"Kandahar"
    }
  },
  {
    "type": "Feature",
    "geometry": {
       "type": "Point",
       "coordinates":  [ 69.18326005,34.51669029 ]
    },
    "properties": {
    "city":"Kabul",
    "city_ascii":"Kabul",
    "pop":3160266,
    "country":"Afghanistan",
    "iso2":"AF",
    "iso3":"AFG",
    "province":"Kabul"
    }
  },
  {
    "type": "Feature",
    "geometry": {
       "type": "Point",
       "coordinates":  [ 19.94900447,60.09699618 ]
    },
    "properties": {
    "city":"Mariehamn",
    "city_ascii":"Mariehamn",
    "pop":10682,
    "country":"Aland",
    "iso2":"AX",
    "iso3":"ALD",
    "province":"Finström"
    }
  },
  {
    "type": "Feature",
    "geometry": {
       "type": "Point",
       "coordinates":  [ 19.79700359,41.51899817 ]
    },
    "properties": {
    "city":"Kruje",
    "city_ascii":"Kruje",
    "pop":21286,
    "country":"Albania",
    "iso2":"AL",
    "iso3":"ALB",
    "province":"Durrës"
    }
  },
  {
    "type": "Feature",
    "geometry": {
       "type": "Point",
       "coordinates":  [ 19.5730026,40.73000402 ]
    },
    "properties": {
    "city":"Fier",
    "city_ascii":"Fier",
    "pop":69747.5,
    "country":"Albania",
    "iso2":"AL",
    "iso3":"ALB",
    "province":"Fier"
    }
  },
  {
    "type": "Feature",
    "geometry": {
       "type": "Point",
       "coordinates":  [ 19.71600348,40.94000113 ]
    },
    "properties": {
    "city":"Lushnje",
    "city_ascii":"Lushnje",
    "pop":41469,
    "country":"Albania",
    "iso2":"AL",
    "iso3":"ALB",
    "province":"Fier"
    }
  },
  {
    "type": "Feature",
    "geometry": {
       "type": "Point",
       "coordinates":  [ 19.88330448,42.03330302 ]
    },
    "properties": {
    "city":"Puke",
    "city_ascii":"Puke",
    "pop":6495,
    "country":"Albania",
    "iso2":"AL",
    "iso3":"ALB",
    "province":"Shkodër"
    }
  },
  {
    "type": "Feature",
    "geometry": {
       "type": "Point",
       "coordinates":  [ 20.08330257,42.33330007 ]
    },
    "properties": {
    "city":"Bajram Curri",
    "city_ascii":"Bajram Curri",
    "pop":7967,
    "country":"Albania",
    "iso2":"AL",
    "iso3":"ALB",
    "province":"Kukës"
    }
  },
  {
    "type": "Feature",
    "geometry": {
       "type": "Point",
       "coordinates":  [ 20.43399653,42.08300107 ]
    },
    "properties": {
    "city":"Kukes",
    "city_ascii":"Kukes",
    "pop":17832,
    "country":"Albania",
    "iso2":"AL",
    "iso3":"ALB",
    "province":"Kukës"
    }
  },
  {
    "type": "Feature",
    "geometry": {
       "type": "Point",
       "coordinates":  [ 19.99999859,39.87700212 ]
    },
    "properties": {
    "city":"Sarande",
    "city_ascii":"Sarande",
    "pop":15147,
    "country":"Albania",
    "iso2":"AL",
    "iso3":"ALB",
    "province":"Vlorë"
    }
  },
  {
    "type": "Feature",
    "geometry": {
       "type": "Point",
       "coordinates":  [ 20.68329651,40.33330213 ]
    },
    "properties": {
    "city":"Erseke",
    "city_ascii":"Erseke",
    "pop":7890,
    "country":"Albania",
    "iso2":"AL",
    "iso3":"ALB",
    "province":"Korçë"
    }
  },
  {
    "type": "Feature",
    "geometry": {
       "type": "Point",
       "coordinates":  [ 20.66400062,40.89999612 ]
    },
    "properties": {
    "city":"Pogradec",
    "city_ascii":"Pogradec",
    "pop":35000,
    "country":"Albania",
    "iso2":"AL",
    "iso3":"ALB",
    "province":"Korçë"
    }
  },
  {
    "type": "Feature",
    "geometry": {
       "type": "Point",
       "coordinates":  [ 20.76666353,40.61667601 ]
    },
    "properties": {
    "city":"Korce",
    "city_ascii":"Korce",
    "pop":58259,
    "country":"Albania",
    "iso2":"AL",
    "iso3":"ALB",
    "province":"Korçë"
    }
  },
  {
    "type": "Feature",
    "geometry": {
       "type": "Point",
       "coordinates":  [ 19.97199958,40.70999705 ]
    },
    "properties": {
    "city":"Berat",
    "city_ascii":"Berat",
    "pop":46866,
    "country":"Albania",
    "iso2":"AL",
    "iso3":"ALB",
    "province":"Berat"
    }
  },
  {
    "type": "Feature",
    "geometry": {
       "type": "Point",
       "coordinates":  [ 20.23329663,40.51670403 ]
    },
    "properties": {
    "city":"Corovode",
    "city_ascii":"Corovode",
    "pop":14046,
    "country":"Albania",
    "iso2":"AL",
    "iso3":"ALB",
    "province":"Berat"
    }
  },
  {
    "type": "Feature",
    "geometry": {
       "type": "Point",
       "coordinates":  [ 20.19999652,40.86669601 ]
    },
    "properties": {
    "city":"Gramsh",
    "city_ascii":"Gramsh",
    "pop":11556,
    "country":"Albania",
    "iso2":"AL",
    "iso3":"ALB",
    "province":"Elbasan"
    }
  },
  {
    "type": "Feature",
    "geometry": {
       "type": "Point",
       "coordinates":  [ 20.3667036,41.20000211 ]
    },
    "properties": {
    "city":"Librazhd",
    "city_ascii":"Librazhd",
    "pop":12691,
    "country":"Albania",
    "iso2":"AL",
    "iso3":"ALB",
    "province":"Elbasan"
    }
  },
  {
    "type": "Feature",
    "geometry": {
       "type": "Point",
       "coordinates":  [ 20.03329854,40.2832981 ]
    },
    "properties": {
    "city":"Tepelene",
    "city_ascii":"Tepelene",
    "pop":11955,
    "country":"Albania",
    "iso2":"AL",
    "iso3":"ALB",
    "province":"Gjirokastër"
    }
  },
  {
    "type": "Feature",
    "geometry": {
       "type": "Point",
       "coordinates":  [ 20.35199756,40.23399605 ]
    },
    "properties": {
    "city":"Permet",
    "city_ascii":"Permet",
    "pop":10686,
    "country":"Albania",
    "iso2":"AL",
    "iso3":"ALB",
    "province":"Gjirokastër"
    }
  },
  {
    "type": "Feature",
    "geometry": {
       "type": "Point",
       "coordinates":  [ 20.14900256,40.07899809 ]
    },
    "properties": {
    "city":"Gjirokaster",
    "city_ascii":"Gjirokaster",
    "pop":23437,
    "country":"Albania",
    "iso2":"AL",
    "iso3":"ALB",
    "province":"Gjirokastër"
    }
  },
  {
    "type": "Feature",
    "geometry": {
       "type": "Point",
       "coordinates":  [ 20.43330349,41.6833021 ]
    },
    "properties": {
    "city":"Peshkopi",
    "city_ascii":"Peshkopi",
    "pop":14848,
    "country":"Albania",
    "iso2":"AL",
    "iso3":"ALB",
    "province":"Dibër"
    }
  },
  {
    "type": "Feature",
    "geometry": {
       "type": "Point",
       "coordinates":  [ 20.01600053,41.62599908 ]
    },
    "properties": {
    "city":"Burrel",
    "city_ascii":"Burrel",
    "pop":15405,
    "country":"Albania",
    "iso2":"AL",
    "iso3":"ALB",
    "province":"Dibër"
    }
  },
  {
    "type": "Feature",
    "geometry": {
       "type": "Point",
       "coordinates":  [ 19.65400254,41.78799914 ]
    },
    "properties": {
    "city":"Lezhe",
    "city_ascii":"Lezhe",
    "pop":18695,
    "country":"Albania",
    "iso2":"AL",
    "iso3":"ALB",
    "province":"Lezhë"
    }
  },
  {
    "type": "Feature",
    "geometry": {
       "type": "Point",
       "coordinates":  [ 19.81670459,41.78330106 ]
    },
    "properties": {
    "city":"Rreshen",
    "city_ascii":"Rreshen",
    "pop":10064,
    "country":"Albania",
    "iso2":"AL",
    "iso3":"ALB",
    "province":"Lezhë"
    }
  },
  {
    "type": "Feature",
    "geometry": {
       "type": "Point",
       "coordinates":  [ 19.49823075,40.47736005 ]
    },
    "properties": {
    "city":"Vlore",
    "city_ascii":"Vlore",
    "pop":89508.5,
    "country":"Albania",
    "iso2":"AL",
    "iso3":"ALB",
    "province":"Vlorë"
    }
  },
  {
    "type": "Feature",
    "geometry": {
       "type": "Point",
       "coordinates":  [ 20.08382808,41.12150677 ]
    },
    "properties": {
    "city":"Elbasan",
    "city_ascii":"Elbasan",
    "pop":132956.5,
    "country":"Albania",
    "iso2":"AL",
    "iso3":"ALB",
    "province":"Elbasan"
    }
  },
  {
    "type": "Feature",
    "geometry": {
       "type": "Point",
       "coordinates":  [ 19.44820797,41.3177997 ]
    },
    "properties": {
    "city":"Durres",
    "city_ascii":"Durres",
    "pop":132233,
    "country":"Albania",
    "iso2":"AL",
    "iso3":"ALB",
    "province":"Durrës"
    }
  },
  {
    "type": "Feature",
    "geometry": {
       "type": "Point",
       "coordinates":  [ 19.51884965,42.06845156 ]
    },
    "properties": {
    "city":"Shkoder",
    "city_ascii":"Shkoder",
    "pop":122006,
    "country":"Albania",
    "iso2":"AL",
    "iso3":"ALB",
    "province":"Shkodër"
    }
  },
  {
    "type": "Feature",
    "geometry": {
       "type": "Point",
       "coordinates":  [ 19.81888301,41.32754071 ]
    },
    "properties": {
    "city":"Tirana",
    "city_ascii":"Tirana",
    "pop":658318,
    "country":"Albania",
    "iso2":"AL",
    "iso3":"ALB",
    "province":"Durrës"
    }
  },
  {
    "type": "Feature",
    "geometry": {
       "type": "Point",
       "coordinates":  [ 5.76600356,36.82199703 ]
    },
    "properties": {
    "city":"Jijel",
    "city_ascii":"Jijel",
    "pop":148000,
    "country":"Algeria",
    "iso2":"DZ",
    "iso3":"DZA",
    "province":"Jijel"
    }
  },
  {
    "type": "Feature",
    "geometry": {
       "type": "Point",
       "coordinates":  [ 4.033332556,36.80000111 ]
    },
    "properties": {
    "city":"Tizi-Ouzou",
    "city_ascii":"Tizi-Ouzou",
    "pop":144000,
    "country":"Algeria",
    "iso2":"DZ",
    "iso3":"DZA",
    "province":"Tizi Ouzou"
    }
  },
  {
    "type": "Feature",
    "geometry": {
       "type": "Point",
       "coordinates":  [ 4.629996466,36.05900401 ]
    },
    "properties": {
    "city":"Bordj Bou Arreridj",
    "city_ascii":"Bordj Bou Arreridj",
    "pop":134500,
    "country":"Algeria",
    "iso2":"DZ",
    "iso3":"DZA",
    "province":"Bordj Bou Arréridj"
    }
  },
  {
    "type": "Feature",
    "geometry": {
       "type": "Point",
       "coordinates":  [ 4.545000584,35.7000031 ]
    },
    "properties": {
    "city":"M'sila",
    "city_ascii":"M'sila",
    "pop":125000,
    "country":"Algeria",
    "iso2":"DZ",
    "iso3":"DZA",
    "province":"M'Sila"
    }
  },
  {
    "type": "Feature",
    "geometry": {
       "type": "Point",
       "coordinates":  [ 7.427997486,36.46600213 ]
    },
    "properties": {
    "city":"Guelma",
    "city_ascii":"Guelma",
    "pop":123590,
    "country":"Algeria",
    "iso2":"DZ",
    "iso3":"DZA",
    "province":"Guelma"
    }
  },
  {
    "type": "Feature",
    "geometry": {
       "type": "Point",
       "coordinates":  [ 7.149996522,35.84999715 ]
    },
    "properties": {
    "city":"Oum el Bouaghi",
    "city_ascii":"Oum el Bouaghi",
    "pop":100821,
    "country":"Algeria",
    "iso2":"DZ",
    "iso3":"DZA",
    "province":"Oum el Bouaghi"
    }
  },
  {
    "type": "Feature",
    "geometry": {
       "type": "Point",
       "coordinates":  [ 0.269998737,29.23652163 ]
    },
    "properties": {
    "city":"Timimoun",
    "city_ascii":"Timimoun",
    "pop":26568,
    "country":"Algeria",
    "iso2":"DZ",
    "iso3":"DZA",
    "province":"Adrar"
    }
  },
  {
    "type": "Feature",
    "geometry": {
       "type": "Point",
       "coordinates":  [ -0.639971559,35.19034426 ]
    },
    "properties": {
    "city":"Sidi bel Abbes",
    "city_ascii":"Sidi bel Abbes",
    "pop":200186.5,
    "country":"Algeria",
    "iso2":"DZ",
    "iso3":"DZA",
    "province":"Sidi Bel Abbès"
    }
  },
  {
    "type": "Feature",
    "geometry": {
       "type": "Point",
       "coordinates":  [ -1.32000757,34.89041424 ]
    },
    "properties": {
    "city":"Tlimcen",
    "city_ascii":"Tlimcen",
    "pop":181059,
    "country":"Algeria",
    "iso2":"DZ",
    "iso3":"DZA",
    "province":"Tlemcen"
    }
  },
  {
    "type": "Feature",
    "geometry": {
       "type": "Point",
       "coordinates":  [ -1.251381268,32.04926984 ]
    },
    "properties": {
    "city":"Beni Ounif",
    "city_ascii":"Beni Ounif",
    "pop":5628,
    "country":"Algeria",
    "iso2":"DZ",
    "iso3":"DZA",
    "province":"Béchar"
    }
  },
  {
    "type": "Feature",
    "geometry": {
       "type": "Point",
       "coordinates":  [ -2.733306317,31.01708478 ]
    },
    "properties": {
    "city":"Abadla",
    "city_ascii":"Abadla",
    "pop":14364,
    "country":"Algeria",
    "iso2":"DZ",
    "iso3":"DZA",
    "province":"Béchar"
    }
  },
  {
    "type": "Feature",
    "geometry": {
       "type": "Point",
       "coordinates":  [ -0.579949383,32.76041506 ]
    },
    "properties": {
    "city":"Sefra",
    "city_ascii":"Sefra",
    "pop":51118,
    "country":"Algeria",
    "iso2":"DZ",
    "iso3":"DZA",
    "province":"Naâma"
    }
  },
  {
    "type": "Feature",
    "geometry": {
       "type": "Point",
       "coordinates":  [ 6.899981647,36.88042198 ]
    },
    "properties": {
    "city":"Skikda",
    "city_ascii":"Skikda",
    "pop":193941.5,
    "country":"Algeria",
    "iso2":"DZ",
    "iso3":"DZA",
    "province":"Skikda"
    }
  },
  {
    "type": "Feature",
    "geometry": {
       "type": "Point",
       "coordinates":  [ 9.482252969,24.5529057 ]
    },
    "properties": {
    "city":"Djanet",
    "city_ascii":"Djanet",
    "pop":666,
    "country":"Algeria",
    "iso2":"DZ",
    "iso3":"DZA",
    "province":"Illizi"
    }
  },
  {
    "type": "Feature",
    "geometry": {
       "type": "Point",
       "coordinates":  [ 9.550000772,28.0503408 ]
    },
    "properties": {
    "city":"I-n-Amenas",
    "city_ascii":"I-n-Amenas",
    "pop":216,
    "country":"Algeria",
    "iso2":"DZ",
    "iso3":"DZA",
    "province":"Illizi"
    }
  },
  {
    "type": "Feature",
    "geometry": {
       "type": "Point",
       "coordinates":  [ 5.164738727,23.69394004 ]
    },
    "properties": {
    "city":"In Amguel",
    "city_ascii":"In Amguel",
    "pop":3030,
    "country":"Algeria",
    "iso2":"DZ",
    "iso3":"DZA",
    "province":"Tamanghasset"
    }
  },
  {
    "type": "Feature",
    "geometry": {
       "type": "Point",
       "coordinates":  [ 1.009953571,33.6903583 ]
    },
    "properties": {
    "city":"El Bayadh",
    "city_ascii":"El Bayadh",
    "pop":67413,
    "country":"Algeria",
    "iso2":"DZ",
    "iso3":"DZA",
    "province":"El Bayadh"
    }
  },
  {
    "type": "Feature",
    "geometry": {
       "type": "Point",
       "coordinates":  [ 6.859984089,33.37040367 ]
    },
    "properties": {
    "city":"El Oued",
    "city_ascii":"El Oued",
    "pop":177497,
    "country":"Algeria",
    "iso2":"DZ",
    "iso3":"DZA",
    "province":"Biskra"
    }
  },
  {
    "type": "Feature",
    "geometry": {
       "type": "Point",
       "coordinates":  [ 6.054451862,31.70234011 ]
    },
    "properties": {
    "city":"Hassi Messaoud",
    "city_ascii":"Hassi Messaoud",
    "pop":18124,
    "country":"Algeria",
    "iso2":"DZ",
    "iso3":"DZA",
    "province":"Ouargla"
    }
  },
  {
    "type": "Feature",
    "geometry": {
       "type": "Point",
       "coordinates":  [ 1.319960489,36.17041363 ]
    },
    "properties": {
    "city":"Chlef",
    "city_ascii":"Chlef",
    "pop":449167,
    "country":"Algeria",
    "iso2":"DZ",
    "iso3":"DZA",
    "province":"Chlef"
    }
  },
  {
    "type": "Feature",
    "geometry": {
       "type": "Point",
       "coordinates":  [ 0.14003251,35.40040895 ]
    },
    "properties": {
    "city":"Mascara",
    "city_ascii":"Mascara",
    "pop":108230,
    "country":"Algeria",
    "iso2":"DZ",
    "iso3":"DZA",
    "province":"Mascara"
    }
  },
  {
    "type": "Feature",
    "geometry": {
       "type": "Point",
       "coordinates":  [ 0.089983885,35.940376 ]
    },
    "properties": {
    "city":"Mostaganem",
    "city_ascii":"Mostaganem",
    "pop":159177,
    "country":"Algeria",
    "iso2":"DZ",
    "iso3":"DZA",
    "province":"Mostaganem"
    }
  },
  {
    "type": "Feature",
    "geometry": {
       "type": "Point",
       "coordinates":  [ 0.14003251,34.84039146 ]
    },
    "properties": {
    "city":"Saida",
    "city_ascii":"Saida",
    "pop":134855,
    "country":"Algeria",
    "iso2":"DZ",
    "iso3":"DZA",
    "province":"Saïda"
    }
  },
  {
    "type": "Feature",
    "geometry": {
       "type": "Point",
       "coordinates":  [ 1.319960489,35.38043601 ]
    },
    "properties": {
    "city":"Tiarat",
    "city_ascii":"Tiarat",
    "pop":184195,
    "country":"Algeria",
    "iso2":"DZ",
    "iso3":"DZA",
    "province":"Tiaret"
    }
  },
  {
    "type": "Feature",
    "geometry": {
       "type": "Point",
       "coordinates":  [ 5.070015827,36.76037762 ]
    },
    "properties": {
    "city":"Bejaia",
    "city_ascii":"Bejaia",
    "pop":274520,
    "country":"Algeria",
    "iso2":"DZ",
    "iso3":"DZA",
    "province":"Béjaïa"
    }
  },
  {
    "type": "Feature",
    "geometry": {
       "type": "Point",
       "coordinates":  [ 2.829997517,36.4203467 ]
    },
    "properties": {
    "city":"Blida",
    "city_ascii":"Blida",
    "pop":388174,
    "country":"Algeria",
    "iso2":"DZ",
    "iso3":"DZA",
    "province":"Blida"
    }
  },
  {
    "type": "Feature",
    "geometry": {
       "type": "Point",
       "coordinates":  [ 3.900009724,36.38047833 ]
    },
    "properties": {
    "city":"Bouira",
    "city_ascii":"Bouira",
    "pop":110144,
    "country":"Algeria",
    "iso2":"DZ",
    "iso3":"DZA",
    "province":"Bouira"
    }
  },
  {
    "type": "Feature",
    "geometry": {
       "type": "Point",
       "coordinates":  [ 2.770001179,36.27040753 ]
    },
    "properties": {
    "city":"Medea",
    "city_ascii":"Medea",
    "pop":145863.5,
    "country":"Algeria",
    "iso2":"DZ",
    "iso3":"DZA",
    "province":"Médéa"
    }
  },
  {
    "type": "Feature",
    "geometry": {
       "type": "Point",
       "coordinates":  [ 7.949995075,36.29038047 ]
    },
    "properties": {
    "city":"Souk Ahras",
    "city_ascii":"Souk Ahras",
    "pop":134947,
    "country":"Algeria",
    "iso2":"DZ",
    "iso3":"DZA",
    "province":"Souk Ahras"
    }
  },
  {
    "type": "Feature",
    "geometry": {
       "type": "Point",
       "coordinates":  [ 8.120010537,35.41043418 ]
    },
    "properties": {
    "city":"Tebessa",
    "city_ascii":"Tebessa",
    "pop":171742,
    "country":"Algeria",
    "iso2":"DZ",
    "iso3":"DZA",
    "province":"Tébessa"
    }
  },
  {
    "type": "Feature",
    "geometry": {
       "type": "Point",
       "coordinates":  [ -0.289967083,27.86999005 ]
    },
    "properties": {
    "city":"Adrar",
    "city_ascii":"Adrar",
    "pop":56910,
    "country":"Algeria",
    "iso2":"DZ",
    "iso3":"DZA",
    "province":"Adrar"
    }
  },
  {
    "type": "Feature",
    "geometry": {
       "type": "Point",
       "coordinates":  [ 0.166645873,26.69998395 ]
    },
    "properties": {
    "city":"Reggane",
    "city_ascii":"Reggane",
    "pop":22351.5,
    "country":"Algeria",
    "iso2":"DZ",
    "iso3":"DZA",
    "province":"Adrar"
    }
  },
  {
    "type": "Feature",
    "geometry": {
       "type": "Point",
       "coordinates":  [ -2.230003704,31.61110537 ]
    },
    "properties": {
    "city":"Bechar",
    "city_ascii":"Bechar",
    "pop":142415.5,
    "country":"Algeria",
    "iso2":"DZ",
    "iso3":"DZA",
    "province":"Béchar"
    }
  },
  {
    "type": "Feature",
    "geometry": {
       "type": "Point",
       "coordinates":  [ -8.147782025,27.67418805 ]
    },
    "properties": {
    "city":"Tindouf",
    "city_ascii":"Tindouf",
    "pop":18270,
    "country":"Algeria",
    "iso2":"DZ",
    "iso3":"DZA",
    "province":"Tindouf"
    }
  },
  {
    "type": "Feature",
    "geometry": {
       "type": "Point",
       "coordinates":  [ 8.466604369,26.48335634 ]
    },
    "properties": {
    "city":"Illizi",
    "city_ascii":"Illizi",
    "pop":7293,
    "country":"Algeria",
    "iso2":"DZ",
    "iso3":"DZA",
    "province":"Illizi"
    }
  },
  {
    "type": "Feature",
    "geometry": {
       "type": "Point",
       "coordinates":  [ 3.749993041,25.2799931 ]
    },
    "properties": {
    "city":"Arak",
    "city_ascii":"Arak",
    "pop":423251,
    "country":"Algeria",
    "iso2":"DZ",
    "iso3":"DZA",
    "province":"Tamanghasset"
    }
  },
  {
    "type": "Feature",
    "geometry": {
       "type": "Point",
       "coordinates":  [ 2.466608845,27.21664492 ]
    },
    "properties": {
    "city":"I-n-Salah",
    "city_ascii":"I-n-Salah",
    "pop":28632,
    "country":"Algeria",
    "iso2":"DZ",
    "iso3":"DZA",
    "province":"Tamanghasset"
    }
  },
  {
    "type": "Feature",
    "geometry": {
       "type": "Point",
       "coordinates":  [ 2.883327595,30.56662132 ]
    },
    "properties": {
    "city":"El Golea",
    "city_ascii":"El Golea",
    "pop":32049,
    "country":"Algeria",
    "iso2":"DZ",
    "iso3":"DZA",
    "province":"Ghardaïa"
    }
  },
  {
    "type": "Feature",
    "geometry": {
       "type": "Point",
       "coordinates":  [ 2.880020303,33.80998924 ]
    },
    "properties": {
    "city":"Laghouat",
    "city_ascii":"Laghouat",
    "pop":108279,
    "country":"Algeria",
    "iso2":"DZ",
    "iso3":"DZA",
    "province":"Laghouat"
    }
  },
  {
    "type": "Feature",
    "geometry": {
       "type": "Point",
       "coordinates":  [ 6.05998124,33.0999809 ]
    },
    "properties": {
    "city":"Touggourt",
    "city_ascii":"Touggourt",
    "pop":91499,
    "country":"Algeria",
    "iso2":"DZ",
    "iso3":"DZA",
    "province":"Ouargla"
    }
  },
  {
    "type": "Feature",
    "geometry": {
       "type": "Point",
       "coordinates":  [ 5.340025186,31.96997235 ]
    },
    "properties": {
    "city":"Ouargla",
    "city_ascii":"Ouargla",
    "pop":176271,
    "country":"Algeria",
    "iso2":"DZ",
    "iso3":"DZA",
    "province":"Ouargla"
    }
  },
  {
    "type": "Feature",
    "geometry": {
       "type": "Point",
       "coordinates":  [ 5.73002722,34.85997683 ]
    },
    "properties": {
    "city":"Biskra",
    "city_ascii":"Biskra",
    "pop":202103,
    "country":"Algeria",
    "iso2":"DZ",
    "iso3":"DZA",
    "province":"Biskra"
    }
  },
  {
    "type": "Feature",
    "geometry": {
       "type": "Point",
       "coordinates":  [ 3.250023558,34.67998781 ]
    },
    "properties": {
    "city":"Djelfa",
    "city_ascii":"Djelfa",
    "pop":170901,
    "country":"Algeria",
    "iso2":"DZ",
    "iso3":"DZA",
    "province":"Djelfa"
    }
  },
  {
    "type": "Feature",
    "geometry": {
       "type": "Point",
       "coordinates":  [ 5.399969847,36.18002545 ]
    },
    "properties": {
    "city":"Setif",
    "city_ascii":"Setif",
    "pop":274744,
    "country":"Algeria",
    "iso2":"DZ",
    "iso3":"DZA",
    "province":"Sétif"
    }
  },
  {
    "type": "Feature",
    "geometry": {
       "type": "Point",
       "coordinates":  [ 6.170000365,35.56995933 ]
    },
    "properties": {
    "city":"Batna",
    "city_ascii":"Batna",
    "pop":269467,
    "country":"Algeria",
    "iso2":"DZ",
    "iso3":"DZA",
    "province":"Batna"
    }
  },
  {
    "type": "Feature",
    "geometry": {
       "type": "Point",
       "coordinates":  [ 7.759980834,36.92000612 ]
    },
    "properties": {
    "city":"Annaba",
    "city_ascii":"Annaba",
    "pop":355047,
    "country":"Algeria",
    "iso2":"DZ",
    "iso3":"DZA",
    "province":"Annaba"
    }
  },
  {
    "type": "Feature",
    "geometry": {
       "type": "Point",
       "coordinates":  [ 6.599948281,36.35998863 ]
    },
    "properties": {
    "city":"Constantine",
    "city_ascii":"Constantine",
    "pop":527638,
    "country":"Algeria",
    "iso2":"DZ",
    "iso3":"DZA",
    "province":"Constantine"
    }
  },
  {
    "type": "Feature",
    "geometry": {
       "type": "Point",
       "coordinates":  [ -0.61997278,35.71000246 ]
    },
    "properties": {
    "city":"Oran",
    "city_ascii":"Oran",
    "pop":721992,
    "country":"Algeria",
    "iso2":"DZ",
    "iso3":"DZA",
    "province":"Oran"
    }
  },
  {
    "type": "Feature",
    "geometry": {
       "type": "Point",
       "coordinates":  [ 5.522804727,22.78500327 ]
    },
    "properties": {
    "city":"Tamanrasset",
    "city_ascii":"Tamanrasset",
    "pop":71808,
    "country":"Algeria",
    "iso2":"DZ",
    "iso3":"DZA",
    "province":"Tamanghasset"
    }
  },
  {
    "type": "Feature",
    "geometry": {
       "type": "Point",
       "coordinates":  [ 3.669997923,32.48999229 ]
    },
    "properties": {
    "city":"Ghardaia",
    "city_ascii":"Ghardaia",
    "pop":125480,
    "country":"Algeria",
    "iso2":"DZ",
    "iso3":"DZA",
    "province":"Ghardaïa"
    }
  },
  {
    "type": "Feature",
    "geometry": {
       "type": "Point",
       "coordinates":  [ 3.05055253,36.7630648 ]
    },
    "properties": {
    "city":"Algiers",
    "city_ascii":"Algiers",
    "pop":2665831.5,
    "country":"Algeria",
    "iso2":"DZ",
    "iso3":"DZA",
    "province":"Alger"
    }
  },
  {
    "type": "Feature",
    "geometry": {
       "type": "Point",
       "coordinates":  [ -170.7066451,-14.2766105 ]
    },
    "properties": {
    "city":"Pago Pago",
    "city_ascii":"Pago Pago",
    "pop":12038,
    "country":"American Samoa",
    "iso2":"AS",
    "iso3":"ASM",
    "province":""
    }
  },
  {
    "type": "Feature",
    "geometry": {
       "type": "Point",
       "coordinates":  [ 1.516485961,42.50000144 ]
    },
    "properties": {
    "city":"Andorra",
    "city_ascii":"Andorra",
    "pop":38127,
    "country":"Andorra",
    "iso2":"AD",
    "iso3":"AND",
    "province":""
    }
  },
  {
    "type": "Feature",
    "geometry": {
       "type": "Point",
       "coordinates":  [ 21.42999914,-18.01953449 ]
    },
    "properties": {
    "city":"Mucusso",
    "city_ascii":"Mucusso",
    "pop":100,
    "country":"Angola",
    "iso2":"AO",
    "iso3":"AGO",
    "province":"Cuando Cubango"
    }
  },
  {
    "type": "Feature",
    "geometry": {
       "type": "Point",
       "coordinates":  [ 20.74001542,-8.419603659 ]
    },
    "properties": {
    "city":"Lucapa",
    "city_ascii":"Lucapa",
    "pop":25578,
    "country":"Angola",
    "iso2":"AO",
    "iso3":"AGO",
    "province":"Lunda Norte"
    }
  },
  {
    "type": "Feature",
    "geometry": {
       "type": "Point",
       "coordinates":  [ 18.43002722,-9.4195943 ]
    },
    "properties": {
    "city":"Capenda-Camulemba",
    "city_ascii":"Capenda-Camulemba",
    "pop":79842.5,
    "country":"Angola",
    "iso2":"AO",
    "iso3":"AGO",
    "province":"Lunda Norte"
    }
  },
  {
    "type": "Feature",
    "geometry": {
       "type": "Point",
       "coordinates":  [ 20.39001094,-9.659579652 ]
    },
    "properties": {
    "city":"Saurimo",
    "city_ascii":"Saurimo",
    "pop":40907,
    "country":"Angola",
    "iso2":"AO",
    "iso3":"AGO",
    "province":"Lunda Sul"
    }
  },
  {
    "type": "Feature",
    "geometry": {
       "type": "Point",
       "coordinates":  [ 21.31998002,-10.59962563 ]
    },
    "properties": {
    "city":"Muconda",
    "city_ascii":"Muconda",
    "pop":2324,
    "country":"Angola",
    "iso2":"AO",
    "iso3":"AGO",
    "province":"Lunda Sul"
    }
  },
  {
    "type": "Feature",
    "geometry": {
       "type": "Point",
       "coordinates":  [ 19.2600024,-10.14962726 ]
    },
    "properties": {
    "city":"Cacolo",
    "city_ascii":"Cacolo",
    "pop":984,
    "country":"Angola",
    "iso2":"AO",
    "iso3":"AGO",
    "province":"Lunda Sul"
    }
  },
  {
    "type": "Feature",
    "geometry": {
       "type": "Point",
       "coordinates":  [ 13.65998246,-8.579542217 ]
    },
    "properties": {
    "city":"Caxito",
    "city_ascii":"Caxito",
    "pop":15665.5,
    "country":"Angola",
    "iso2":"AO",
    "iso3":"AGO",
    "province":"Bengo"
    }
  },
  {
    "type": "Feature",
    "geometry": {
       "type": "Point",
       "coordinates":  [ 15.37000728,-8.189591859 ]
    },
    "properties": {
    "city":"Camabatela",
    "city_ascii":"Camabatela",
    "pop":12731,
    "country":"Angola",
    "iso2":"AO",
    "iso3":"AGO",
    "province":"Cuanza Norte"
    }
  },
  {
    "type": "Feature",
    "geometry": {
       "type": "Point",
       "coordinates":  [ 14.90998368,-9.299549948 ]
    },
    "properties": {
    "city":"Ndalatando",
    "city_ascii":"Ndalatando",
    "pop":8144,
    "country":"Angola",
    "iso2":"AO",
    "iso3":"AGO",
    "province":"Cuanza Norte"
    }
  },
  {
    "type": "Feature",
    "geometry": {
       "type": "Point",
       "coordinates":  [ 14.97995357,-10.72959186 ]
    },
    "properties": {
    "city":"Quibala",
    "city_ascii":"Quibala",
    "pop":5248.5,
    "country":"Angola",
    "iso2":"AO",
    "iso3":"AGO",
    "province":"Cuanza Sul"
    }
  },
  {
    "type": "Feature",
    "geometry": {
       "type": "Point",
       "coordinates":  [ 14.90001013,-9.999610577 ]
    },
    "properties": {
    "city":"Calulo",
    "city_ascii":"Calulo",
    "pop":795,
    "country":"Angola",
    "iso2":"AO",
    "iso3":"AGO",
    "province":"Cuanza Sul"
    }
  },
  {
    "type": "Feature",
    "geometry": {
       "type": "Point",
       "coordinates":  [ 15.1199967,-11.35952757 ]
    },
    "properties": {
    "city":"Waku Kungo",
    "city_ascii":"Waku Kungo",
    "pop":11519.5,
    "country":"Angola",
    "iso2":"AO",
    "iso3":"AGO",
    "province":"Cuanza Sul"
    }
  },
  {
    "type": "Feature",
    "geometry": {
       "type": "Point",
       "coordinates":  [ 14.84998734,-7.349591452 ]
    },
    "properties": {
    "city":"Songo",
    "city_ascii":"Songo",
    "pop":10579,
    "country":"Angola",
    "iso2":"AO",
    "iso3":"AGO",
    "province":"Uíge"
    }
  },
  {
    "type": "Feature",
    "geometry": {
       "type": "Point",
       "coordinates":  [ 14.23999874,-6.269605694 ]
    },
    "properties": {
    "city":"Mbanza-Congo",
    "city_ascii":"Mbanza-Congo",
    "pop":42201,
    "country":"Angola",
    "iso2":"AO",
    "iso3":"AGO",
    "province":"Zaire"
    }
  },
  {
    "type": "Feature",
    "geometry": {
       "type": "Point",
       "coordinates":  [ 12.86003129,-7.229598776 ]
    },
    "properties": {
    "city":"Nzeto",
    "city_ascii":"Nzeto",
    "pop":19705.5,
    "country":"Angola",
    "iso2":"AO",
    "iso3":"AGO",
    "province":"Zaire"
    }
  },
  {
    "type": "Feature",
    "geometry": {
       "type": "Point",
       "coordinates":  [ 12.36998368,-6.129614239 ]
    },
    "properties": {
    "city":"Soyo",
    "city_ascii":"Soyo",
    "pop":65329,
    "country":"Angola",
    "iso2":"AO",
    "iso3":"AGO",
    "province":"Zaire"
    }
  },
  {
    "type": "Feature",
    "geometry": {
       "type": "Point",
       "coordinates":  [ 12.18999467,-5.55962319 ]
    },
    "properties": {
    "city":"Cabinda",
    "city_ascii":"Cabinda",
    "pop":78905.5,
    "country":"Angola",
    "iso2":"AO",
    "iso3":"AGO",
    "province":"Cabinda"
    }
  },
  {
    "type": "Feature",
    "geometry": {
       "type": "Point",
       "coordinates":  [ 16.19998246,-11.31958169 ]
    },
    "properties": {
    "city":"Calucinga",
    "city_ascii":"Calucinga",
    "pop":531,
    "country":"Angola",
    "iso2":"AO",
    "iso3":"AGO",
    "province":"Bié"
    }
  },
  {
    "type": "Feature",
    "geometry": {
       "type": "Point",
       "coordinates":  [ 17.46998246,-12.01959064 ]
    },
    "properties": {
    "city":"Camacupa",
    "city_ascii":"Camacupa",
    "pop":19489,
    "country":"Angola",
    "iso2":"AO",
    "iso3":"AGO",
    "province":"Bié"
    }
  },
  {
    "type": "Feature",
    "geometry": {
       "type": "Point",
       "coordinates":  [ 14.23999874,-13.03958006 ]
    },
    "properties": {
    "city":"Cubal",
    "city_ascii":"Cubal",
    "pop":4837,
    "country":"Angola",
    "iso2":"AO",
    "iso3":"AGO",
    "province":"Benguela"
    }
  },
  {
    "type": "Feature",
    "geometry": {
       "type": "Point",
       "coordinates":  [ 20.36003861,-15.7895414 ]
    },
    "properties": {
    "city":"Mavinga",
    "city_ascii":"Mavinga",
    "pop":30000,
    "country":"Angola",
    "iso2":"AO",
    "iso3":"AGO",
    "province":"Cuando Cubango"
    }
  },
  {
    "type": "Feature",
    "geometry": {
       "type": "Point",
       "coordinates":  [ 19.16998205,-15.15960569 ]
    },
    "properties": {
    "city":"Cuito Caunavale",
    "city_ascii":"Cuito Caunavale",
    "pop":149,
    "country":"Angola",
    "iso2":"AO",
    "iso3":"AGO",
    "province":"Cuando Cubango"
    }
  },
  {
    "type": "Feature",
    "geometry": {
       "type": "Point",
       "coordinates":  [ 22.99998083,-17.36954832 ]
    },
    "properties": {
    "city":"Luiana",
    "city_ascii":"Luiana",
    "pop":150,
    "country":"Angola",
    "iso2":"AO",
    "iso3":"AGO",
    "province":"Cuando Cubango"
    }
  },
  {
    "type": "Feature",
    "geometry": {
       "type": "Point",
       "coordinates":  [ 15.73003699,-17.06961831 ]
    },
    "properties": {
    "city":"Ondjiva",
    "city_ascii":"Ondjiva",
    "pop":8748,
    "country":"Angola",
    "iso2":"AO",
    "iso3":"AGO",
    "province":"Cunene"
    }
  },
  {
    "type": "Feature",
    "geometry": {
       "type": "Point",
       "coordinates":  [ 13.92001827,-17.31962889 ]
    },
    "properties": {
    "city":"Chitado",
    "city_ascii":"Chitado",
    "pop":468.5,
    "country":"Angola",
    "iso2":"AO",
    "iso3":"AGO",
    "province":"Cunene"
    }
  },
  {
    "type": "Feature",
    "geometry": {
       "type": "Point",
       "coordinates":  [ 14.0800085,-15.74959552 ]
    },
    "properties": {
    "city":"Chibemba",
    "city_ascii":"Chibemba",
    "pop":1502,
    "country":"Angola",
    "iso2":"AO",
    "iso3":"AGO",
    "province":"Huíla"
    }
  },
  {
    "type": "Feature",
    "geometry": {
       "type": "Point",
       "coordinates":  [ 13.69000647,-15.1896297 ]
    },
    "properties": {
    "city":"Chibia",
    "city_ascii":"Chibia",
    "pop":1411,
    "country":"Angola",
    "iso2":"AO",
    "iso3":"AGO",
    "province":"Huíla"
    }
  },
  {
    "type": "Feature",
    "geometry": {
       "type": "Point",
       "coordinates":  [ 14.55000565,-14.82954832 ]
    },
    "properties": {
    "city":"Quipungo",
    "city_ascii":"Quipungo",
    "pop":186,
    "country":"Angola",
    "iso2":"AO",
    "iso3":"AGO",
    "province":"Huíla"
    }
  },
  {
    "type": "Feature",
    "geometry": {
       "type": "Point",
       "coordinates":  [ 22.23000199,-10.7095414 ]
    },
    "properties": {
    "city":"Luau",
    "city_ascii":"Luau",
    "pop":9964,
    "country":"Angola",
    "iso2":"AO",
    "iso3":"AGO",
    "province":"Moxico"
    }
  },
  {
    "type": "Feature",
    "geometry": {
       "type": "Point",
       "coordinates":  [ 19.86001745,-13.69959145 ]
    },
    "properties": {
    "city":"Cangamba",
    "city_ascii":"Cangamba",
    "pop":1307,
    "country":"Angola",
    "iso2":"AO",
    "iso3":"AGO",
    "province":"Moxico"
    }
  },
  {
    "type": "Feature",
    "geometry": {
       "type": "Point",
       "coordinates":  [ 21.44002437,-14.09961871 ]
    },
    "properties": {
    "city":"Lumbala Nguimbo",
    "city_ascii":"Lumbala Nguimbo",
    "pop":25,
    "country":"Angola",
    "iso2":"AO",
    "iso3":"AGO",
    "province":"Moxico"
    }
  },
  {
    "type": "Feature",
    "geometry": {
       "type": "Point",
       "coordinates":  [ 22.90003861,-11.88957273 ]
    },
    "properties": {
    "city":"Cazombo",
    "city_ascii":"Cazombo",
    "pop":298,
    "country":"Angola",
    "iso2":"AO",
    "iso3":"AGO",
    "province":"Moxico"
    }
  },
  {
    "type": "Feature",
    "geometry": {
       "type": "Point",
       "coordinates":  [ 20.82998409,-7.380028871 ]
    },
    "properties": {
    "city":"Dundo",
    "city_ascii":"Dundo",
    "pop":11985,
    "country":"Angola",
    "iso2":"AO",
    "iso3":"AGO",
    "province":"Lunda Norte"
    }
  },
  {
    "type": "Feature",
    "geometry": {
       "type": "Point",
       "coordinates":  [ 13.12502803,-7.85498696 ]
    },
    "properties": {
    "city":"Ambriz",
    "city_ascii":"Ambriz",
    "pop":17000,
    "country":"Angola",
    "iso2":"AO",
    "iso3":"AGO",
    "province":"Bengo"
    }
  },
  {
    "type": "Feature",
    "geometry": {
       "type": "Point",
       "coordinates":  [ 14.43001298,-9.690017071 ]
    },
    "properties": {
    "city":"Dondo",
    "city_ascii":"Dondo",
    "pop":2353,
    "country":"Angola",
    "iso2":"AO",
    "iso3":"AGO",
    "province":"Cuanza Norte"
    }
  },
  {
    "type": "Feature",
    "geometry": {
       "type": "Point",
       "coordinates":  [ 13.8499967,-11.21002765 ]
    },
    "properties": {
    "city":"Sumbe",
    "city_ascii":"Sumbe",
    "pop":29638.5,
    "country":"Angola",
    "iso2":"AO",
    "iso3":"AGO",
    "province":"Cuanza Sul"
    }
  },
  {
    "type": "Feature",
    "geometry": {
       "type": "Point",
       "coordinates":  [ 15.04997514,-7.620014222 ]
    },
    "properties": {
    "city":"Uige",
    "city_ascii":"Uige",
    "pop":56787.5,
    "country":"Angola",
    "iso2":"AO",
    "iso3":"AGO",
    "province":"Uíge"
    }
  },
  {
    "type": "Feature",
    "geometry": {
       "type": "Point",
       "coordinates":  [ 16.93998897,-12.38003375 ]
    },
    "properties": {
    "city":"Kuito",
    "city_ascii":"Kuito",
    "pop":113955,
    "country":"Angola",
    "iso2":"AO",
    "iso3":"AGO",
    "province":"Bié"
    }
  },
  {
    "type": "Feature",
    "geometry": {
       "type": "Point",
       "coordinates":  [ 13.54123002,-12.37000853 ]
    },
    "properties": {
    "city":"Lobito",
    "city_ascii":"Lobito",
    "pop":170733,
    "country":"Angola",
    "iso2":"AO",
    "iso3":"AGO",
    "province":"Benguela"
    }
  },
  {
    "type": "Feature",
    "geometry": {
       "type": "Point",
       "coordinates":  [ 14.96998002,-16.74002602 ]
    },
    "properties": {
    "city":"Xangongo",
    "city_ascii":"Xangongo",
    "pop":447,
    "country":"Angola",
    "iso2":"AO",
    "iso3":"AGO",
    "province":"Cunene"
    }
  },
  {
    "type": "Feature",
    "geometry": {
       "type": "Point",
       "coordinates":  [ 19.90001501,-11.79004393 ]
    },
    "properties": {
    "city":"Luena",
    "city_ascii":"Luena",
    "pop":17276.5,
    "country":"Angola",
    "iso2":"AO",
    "iso3":"AGO",
    "province":"Moxico"
    }
  },
  {
    "type": "Feature",
    "geometry": {
       "type": "Point",
       "coordinates":  [ 11.85998897,-15.80003172 ]
    },
    "properties": {
    "city":"Tômbua",
    "city_ascii":"Tombua",
    "pop":40000,
    "country":"Angola",
    "iso2":"AO",
    "iso3":"AGO",
    "province":"Namibe"
    }
  },
  {
    "type": "Feature",
    "geometry": {
       "type": "Point",
       "coordinates":  [ 16.34002559,-9.540000388 ]
    },
    "properties": {
    "city":"Malanje",
    "city_ascii":"Malanje",
    "pop":106451,
    "country":"Angola",
    "iso2":"AO",
    "iso3":"AGO",
    "province":"Malanje"
    }
  },
  {
    "type": "Feature",
    "geometry": {
       "type": "Point",
       "coordinates":  [ 13.40723303,-12.57826455 ]
    },
    "properties": {
    "city":"Benguela",
    "city_ascii":"Benguela",
    "pop":142017,
    "country":"Angola",
    "iso2":"AO",
    "iso3":"AGO",
    "province":"Benguela"
    }
  },
  {
    "type": "Feature",
    "geometry": {
       "type": "Point",
       "coordinates":  [ 13.49001868,-14.91000853 ]
    },
    "properties": {
    "city":"Lubango",
    "city_ascii":"Lubango",
    "pop":114086.5,
    "country":"Angola",
    "iso2":"AO",
    "iso3":"AGO",
    "province":"Huíla"
    }
  },
  {
    "type": "Feature",
    "geometry": {
       "type": "Point",
       "coordinates":  [ 12.16002234,-15.19004311 ]
    },
    "properties": {
    "city":"Namibe",
    "city_ascii":"Namibe",
    "pop":128130.5,
    "country":"Angola",
    "iso2":"AO",
    "iso3":"AGO",
    "province":"Namibe"
    }
  },
  {
    "type": "Feature",
    "geometry": {
       "type": "Point",
       "coordinates":  [ 17.69999426,-14.66661253 ]
    },
    "properties": {
    "city":"Menongue",
    "city_ascii":"Menongue",
    "pop":13030,
    "country":"Angola",
    "iso2":"AO",
    "iso3":"AGO",
    "province":"Cuando Cubango"
    }
  },
  {
    "type": "Feature",
    "geometry": {
       "type": "Point",
       "coordinates":  [ 15.76000932,-12.74998533 ]
    },
    "properties": {
    "city":"Huambo",
    "city_ascii":"Huambo",
    "pop":986000,
    "country":"Angola",
    "iso2":"AO",
    "iso3":"AGO",
    "province":"Huambo"
    }
  },
  {
    "type": "Feature",
    "geometry": {
       "type": "Point",
       "coordinates":  [ 13.23442704,-8.838286114 ]
    },
    "properties": {
    "city":"Luanda",
    "city_ascii":"Luanda",
    "pop":3562086,
    "country":"Angola",
    "iso2":"AO",
    "iso3":"AGO",
    "province":"Luanda"
    }
  },
  {
    "type": "Feature",
    "geometry": {
       "type": "Point",
       "coordinates":  [ -58.86386407,-62.17388669 ]
    },
    "properties": {
    "city":"Artigas Base",
    "city_ascii":"Artigas Base",
    "pop":34.5,
    "country":"Antarctica",
    "iso2":"AQ",
    "iso3":"ATA",
    "province":""
    }
  },
  {
    "type": "Feature",
    "geometry": {
       "type": "Point",
       "coordinates":  [ -59.68331852,-62.49950682 ]
    },
    "properties": {
    "city":"Capitan Arturo Prat Station",
    "city_ascii":"Capitan Arturo Prat Station",
    "pop":41,
    "country":"Antarctica",
    "iso2":"AQ",
    "iso3":"ATA",
    "province":""
    }
  },
  {
    "type": "Feature",
    "geometry": {
       "type": "Point",
       "coordinates":  [ -56.6500153,-64.23288939 ]
    },
    "properties": {
    "city":"Marambio Station",
    "city_ascii":"Vicecomodoro Marambio Station",
    "pop":102.5,
    "country":"Antarctica",
    "iso2":"AQ",
    "iso3":"ATA",
    "province":""
    }
  },
  {
    "type": "Feature",
    "geometry": {
       "type": "Point",
       "coordinates":  [ 164.2190271,-74.61919259 ]
    },
    "properties": {
    "city":"Zucchelli Station",
    "city_ascii":"Terra Nova Bay",
    "pop":60,
    "country":"Antarctica",
    "iso2":"AQ",
    "iso3":"ATA",
    "province":""
    }
  },
  {
    "type": "Feature",
    "geometry": {
       "type": "Point",
       "coordinates":  [ -68.12354055,-67.5647756 ]
    },
    "properties": {
    "city":"Rothera Station",
    "city_ascii":"Rothera Station",
    "pop":76,
    "country":"Antarctica",
    "iso2":"AQ",
    "iso3":"ATA",
    "province":""
    }
  },
  {
    "type": "Feature",
    "geometry": {
       "type": "Point",
       "coordinates":  [ -64.0468756,-64.76241335 ]
    },
    "properties": {
    "city":"Palmer Station",
    "city_ascii":"Palmer Station",
    "pop":30.5,
    "country":"Antarctica",
    "iso2":"AQ",
    "iso3":"ATA",
    "province":""
    }
  },
  {
    "type": "Feature",
    "geometry": {
       "type": "Point",
       "coordinates":  [ -58.90765233,-62.18274357 ]
    },
    "properties": {
    "city":"Base Presidente Montalva",
    "city_ascii":"Teniente Rodolfo Marsh Station",
    "pop":115,
    "country":"Antarctica",
    "iso2":"AQ",
    "iso3":"ATA",
    "province":""
    }
  },
  {
    "type": "Feature",
    "geometry": {
       "type": "Point",
       "coordinates":  [ -58.65047599,-62.22414386 ]
    },
    "properties": {
    "city":"Carlini Station",
    "city_ascii":"Teniente Jubany Station",
    "pop":40,
    "country":"Antarctica",
    "iso2":"AQ",
    "iso3":"ATA",
    "province":""
    }
  },
  {
    "type": "Feature",
    "geometry": {
       "type": "Point",
       "coordinates":  [ -58.77159876,-62.2248534 ]
    },
    "properties": {
    "city":"King Sejong Station",
    "city_ascii":"King Sejong Station",
    "pop":53.5,
    "country":"Antarctica",
    "iso2":"AQ",
    "iso3":"ATA",
    "province":""
    }
  },
  {
    "type": "Feature",
    "geometry": {
       "type": "Point",
       "coordinates":  [ -58.9666956,-62.21631997 ]
    },
    "properties": {
    "city":"Great Wall Station",
    "city_ascii":"Great Wall Station",
    "pop":26,
    "country":"Antarctica",
    "iso2":"AQ",
    "iso3":"ATA",
    "province":""
    }
  },
  {
    "type": "Feature",
    "geometry": {
       "type": "Point",
       "coordinates":  [ -58.95266582,-62.19496251 ]
    },
    "properties": {
    "city":"Escudero Base",
    "city_ascii":"Escudero Station",
    "pop":20,
    "country":"Antarctica",
    "iso2":"AQ",
    "iso3":"ATA",
    "province":""
    }
  },
  {
    "type": "Feature",
    "geometry": {
       "type": "Point",
       "coordinates":  [ -57.99998458,-61.99958901 ]
    },
    "properties": {
    "city":"Elephant Island",
    "city_ascii":"Elephant Island, South Shetland Islands",
    "pop":3,
    "country":"Antarctica",
    "iso2":"AQ",
    "iso3":"ATA",
    "province":""
    }
  },
  {
    "type": "Feature",
    "geometry": {
       "type": "Point",
       "coordinates":  [ 166.7491023,-77.84693819 ]
    },
    "properties": {
    "city":"Scott Base",
    "city_ascii":"Scott Base",
    "pop":49.5,
    "country":"Antarctica",
    "iso2":"AQ",
    "iso3":"ATA",
    "province":""
    }
  },
  {
    "type": "Feature",
    "geometry": {
       "type": "Point",
       "coordinates":  [ 166.8694157,-77.73228239 ]
    },
    "properties": {
    "city":"McMurdo Station",
    "city_ascii":"McMurdo Station",
    "pop":600,
    "country":"Antarctica",
    "iso2":"AQ",
    "iso3":"ATA",
    "province":""
    }
  },
  {
    "type": "Feature",
    "geometry": {
       "type": "Point",
       "coordinates":  [ 76.33929808,-69.43406299 ]
    },
    "properties": {
    "city":"Zhongshan Station",
    "city_ascii":"Zhongshan Station",
    "pop":42.5,
    "country":"Antarctica",
    "iso2":"AQ",
    "iso3":"ATA",
    "province":""
    }
  },
  {
    "type": "Feature",
    "geometry": {
       "type": "Point",
       "coordinates":  [ 106.8000337,-78.46628416 ]
    },
    "properties": {
    "city":"Vostok",
    "city_ascii":"Vostok",
    "pop":19,
    "country":"Antarctica",
    "iso2":"AQ",
    "iso3":"ATA",
    "province":""
    }
  },
  {
    "type": "Feature",
    "geometry": {
       "type": "Point",
       "coordinates":  [ 90.49999508,-68.83286701 ]
    },
    "properties": {
    "city":"Peter I Island",
    "city_ascii":"Peter I Island",
    "pop":0.5,
    "country":"Antarctica",
    "iso2":"AQ",
    "iso3":"ATA",
    "province":""
    }
  },
  {
    "type": "Feature",
    "geometry": {
       "type": "Point",
       "coordinates":  [ 93.00628846,-66.57552952 ]
    },
    "properties": {
    "city":"Mirny Station",
    "city_ascii":"Mirny Station",
    "pop":114.5,
    "country":"Antarctica",
    "iso2":"AQ",
    "iso3":"ATA",
    "province":""
    }
  },
  {
    "type": "Feature",
    "geometry": {
       "type": "Point",
       "coordinates":  [ 62.87500073,-67.61452032 ]
    },
    "properties": {
    "city":"Mawson Station",
    "city_ascii":"Mawson Station",
    "pop":40,
    "country":"Antarctica",
    "iso2":"AQ",
    "iso3":"ATA",
    "province":""
    }
  },
  {
    "type": "Feature",
    "geometry": {
       "type": "Point",
       "coordinates":  [ 78.14073509,-68.77767439 ]
    },
    "properties": {
    "city":"Davis Station",
    "city_ascii":"Davis Station",
    "pop":45,
    "country":"Antarctica",
    "iso2":"AQ",
    "iso3":"ATA",
    "province":""
    }
  },
  {
    "type": "Feature",
    "geometry": {
       "type": "Point",
       "coordinates":  [ 124.1670357,-74.66630939 ]
    },
    "properties": {
    "city":"Concordia Research Station",
    "city_ascii":"Concordia Research Station",
    "pop":15,
    "country":"Antarctica",
    "iso2":"AQ",
    "iso3":"ATA",
    "province":""
    }
  },
  {
    "type": "Feature",
    "geometry": {
       "type": "Point",
       "coordinates":  [ 110.536214,-66.28608614 ]
    },
    "properties": {
    "city":"Casey Station",
    "city_ascii":"Casey Station",
    "pop":125,
    "country":"Antarctica",
    "iso2":"AQ",
    "iso3":"ATA",
    "province":""
    }
  },
  {
    "type": "Feature",
    "geometry": {
       "type": "Point",
       "coordinates":  [ 139.2669926,-89.98289386 ]
    },
    "properties": {
    "city":"Amundsen–Scott South Pole Station",
    "city_ascii":"Amundsen–Scott South Pole Station",
    "pop":125,
    "country":"Antarctica",
    "iso2":"AQ",
    "iso3":"ATA",
    "province":""
    }
  },
  {
    "type": "Feature",
    "geometry": {
       "type": "Point",
       "coordinates":  [ -13.41671106,-73.0496122 ]
    },
    "properties": {
    "city":"Wasa Station",
    "city_ascii":"Wasa Station",
    "pop":5,
    "country":"Antarctica",
    "iso2":"AQ",
    "iso3":"ATA",
    "province":""
    }
  },
  {
    "type": "Feature",
    "geometry": {
       "type": "Point",
       "coordinates":  [ 2.533323119,-72.01629026 ]
    },
    "properties": {
    "city":"Troll Station",
    "city_ascii":"Troll Station",
    "pop":25.5,
    "country":"Antarctica",
    "iso2":"AQ",
    "iso3":"ATA",
    "province":""
    }
  },
  {
    "type": "Feature",
    "geometry": {
       "type": "Point",
       "coordinates":  [ -11.21669031,-74.58290363 ]
    },
    "properties": {
    "city":"Svea Station",
    "city_ascii":"Svea Station",
    "pop":5,
    "country":"Antarctica",
    "iso2":"AQ",
    "iso3":"ATA",
    "province":""
    }
  },
  {
    "type": "Feature",
    "geometry": {
       "type": "Point",
       "coordinates":  [ -11.8502129,-71.30123475 ]
    },
    "properties": {
    "city":"Novolazarevskaya Station",
    "city_ascii":"Novolazarevskaya Station",
    "pop":35,
    "country":"Antarctica",
    "iso2":"AQ",
    "iso3":"ATA",
    "province":""
    }
  },
  {
    "type": "Feature",
    "geometry": {
       "type": "Point",
       "coordinates":  [ -7.838438004,-70.89039668 ]
    },
    "properties": {
    "city":"Neumayer Station III",
    "city_ascii":"Neumayer",
    "pop":40,
    "country":"Antarctica",
    "iso2":"AQ",
    "iso3":"ATA",
    "province":""
    }
  },
  {
    "type": "Feature",
    "geometry": {
       "type": "Point",
       "coordinates":  [ 11.7304584,-70.7821796 ]
    },
    "properties": {
    "city":"Maitri Station",
    "city_ascii":"Maitri Station",
    "pop":33,
    "country":"Antarctica",
    "iso2":"AQ",
    "iso3":"ATA",
    "province":""
    }
  },
  {
    "type": "Feature",
    "geometry": {
       "type": "Point",
       "coordinates":  [ -26.4741567,-76.09226319 ]
    },
    "properties": {
    "city":"Halley Station",
    "city_ascii":"Halley Station",
    "pop":43,
    "country":"Antarctica",
    "iso2":"AQ",
    "iso3":"ATA",
    "province":""
    }
  },
  {
    "type": "Feature",
    "geometry": {
       "type": "Point",
       "coordinates":  [ -34.61668319,-77.86632078 ]
    },
    "properties": {
    "city":"Belgrano Station",
    "city_ascii":"General Belgrano Station",
    "pop":57,
    "country":"Antarctica",
    "iso2":"AQ",
    "iso3":"ATA",
    "province":""
    }
  },
  {
    "type": "Feature",
    "geometry": {
       "type": "Point",
       "coordinates":  [ -40.50153152,-81.17908472 ]
    },
    "properties": {
    "city":"Camp Sobral",
    "city_ascii":"Doctor Sobral",
    "pop":20,
    "country":"Antarctica",
    "iso2":"AQ",
    "iso3":"ATA",
    "province":""
    }
  },
  {
    "type": "Feature",
    "geometry": {
       "type": "Point",
       "coordinates":  [ -13.41671106,-75.04959349 ]
    },
    "properties": {
    "city":"Aboa Station",
    "city_ascii":"Aboa Station",
    "pop":15,
    "country":"Antarctica",
    "iso2":"AQ",
    "iso3":"ATA",
    "province":""
    }
  },
  {
    "type": "Feature",
    "geometry": {
       "type": "Point",
       "coordinates":  [ -67.0999976,-68.1163216 ]
    },
    "properties": {
    "city":"San Martín Station",
    "city_ascii":"San Martín Station",
    "pop":19,
    "country":"Antarctica",
    "iso2":"AQ",
    "iso3":"ATA",
    "province":""
    }
  },
  {
    "type": "Feature",
    "geometry": {
       "type": "Point",
       "coordinates":  [ -57.88959352,-63.32841823 ]
    },
    "properties": {
    "city":"Gen. O'Higgins Station",
    "city_ascii":"General Bernado O'Higgins Station",
    "pop":30,
    "country":"Antarctica",
    "iso2":"AQ",
    "iso3":"ATA",
    "province":""
    }
  },
  {
    "type": "Feature",
    "geometry": {
       "type": "Point",
       "coordinates":  [ -57.02590151,-63.37532865 ]
    },
    "properties": {
    "city":"Esperanza Station",
    "city_ascii":"Esperanza Station",
    "pop":152.5,
    "country":"Antarctica",
    "iso2":"AQ",
    "iso3":"ATA",
    "province":""
    }
  },
  {
    "type": "Feature",
    "geometry": {
       "type": "Point",
       "coordinates":  [ -44.73330082,-60.7328963 ]
    },
    "properties": {
    "city":"Orcadas Station",
    "city_ascii":"Orcadas Station",
    "pop":29.5,
    "country":"Antarctica",
    "iso2":"AQ",
    "iso3":"ATA",
    "province":""
    }
  },
  {
    "type": "Feature",
    "geometry": {
       "type": "Point",
       "coordinates":  [ -45.60070332,-60.63130815 ]
    },
    "properties": {
    "city":"Signy Research Station",
    "city_ascii":"Signy Island",
    "pop":4,
    "country":"Antarctica",
    "iso2":"AQ",
    "iso3":"ATA",
    "province":""
    }
  },
  {
    "type": "Feature",
    "geometry": {
       "type": "Point",
       "coordinates":  [ 139.9636836,-66.77505091 ]
    },
    "properties": {
    "city":"Dumont d'Urville Station",
    "city_ascii":"Dumont d'Urville Station",
    "pop":75,
    "country":"Antarctica",
    "iso2":"AQ",
    "iso3":"ATA",
    "province":""
    }
  },
  {
    "type": "Feature",
    "geometry": {
       "type": "Point",
       "coordinates":  [ 39.7460831,-69.03039249 ]
    },
    "properties": {
    "city":"Showa Station",
    "city_ascii":"Showa Station",
    "pop":50,
    "country":"Antarctica",
    "iso2":"AQ",
    "iso3":"ATA",
    "province":""
    }
  },
  {
    "type": "Feature",
    "geometry": {
       "type": "Point",
       "coordinates":  [ -61.85003382,17.11803652 ]
    },
    "properties": {
    "city":"Saint John's",
    "city_ascii":"Saint John's",
    "pop":29862.5,
    "country":"Antigua and Barbuda",
    "iso2":"AG",
    "iso3":"ATG",
    "province":""
    }
  },
  {
    "type": "Feature",
    "geometry": {
       "type": "Point",
       "coordinates":  [ -72.30001612,-51.65003986 ]
    },
    "properties": {
    "city":"28 de Noviembre",
    "city_ascii":"28 de Noviembre",
    "pop":5300,
    "country":"Argentina",
    "iso2":"AR",
    "iso3":"ARG",
    "province":"Santa Cruz"
    }
  },
  {
    "type": "Feature",
    "geometry": {
       "type": "Point",
       "coordinates":  [ -70.25001205,-48.76659829 ]
    },
    "properties": {
    "city":"Gobernador Gregores",
    "city_ascii":"Gobernador Gregores",
    "pop":2519,
    "country":"Argentina",
    "iso2":"AR",
    "iso3":"ARG",
    "province":"Santa Cruz"
    }
  },
  {
    "type": "Feature",
    "geometry": {
       "type": "Point",
       "coordinates":  [ -68.90347273,-49.97454865 ]
    },
    "properties": {
    "city":"Comondante Luis Piedrabuena",
    "city_ascii":"Comondante Luis Piedrabuena",
    "pop":410,
    "country":"Argentina",
    "iso2":"AR",
    "iso3":"ARG",
    "province":"Santa Cruz"
    }
  },
  {
    "type": "Feature",
    "geometry": {
       "type": "Point",
       "coordinates":  [ -70.26657434,-45.68337563 ]
    },
    "properties": {
    "city":"Paso Rio Mayo",
    "city_ascii":"Paso Rio Mayo",
    "pop":1825,
    "country":"Argentina",
    "iso2":"AR",
    "iso3":"ARG",
    "province":"Chubut"
    }
  },
  {
    "type": "Feature",
    "geometry": {
       "type": "Point",
       "coordinates":  [ -70.83328394,-45.03328611 ]
    },
    "properties": {
    "city":"Alto Rio Sanguer",
    "city_ascii":"Alto Rio Sanguer",
    "pop":1548,
    "country":"Argentina",
    "iso2":"AR",
    "iso3":"ARG",
    "province":"Chubut"
    }
  },
  {
    "type": "Feature",
    "geometry": {
       "type": "Point",
       "coordinates":  [ -71.16662276,-42.05000568 ]
    },
    "properties": {
    "city":"El Maiten",
    "city_ascii":"El Maiten",
    "pop":4269,
    "country":"Argentina",
    "iso2":"AR",
    "iso3":"ARG",
    "province":"Chubut"
    }
  },
  {
    "type": "Feature",
    "geometry": {
       "type": "Point",
       "coordinates":  [ -65.04001998,-42.77001341 ]
    },
    "properties": {
    "city":"Puerto Madryn",
    "city_ascii":"Puerto Madryn",
    "pop":61159,
    "country":"Argentina",
    "iso2":"AR",
    "iso3":"ARG",
    "province":"Chubut"
    }
  },
  {
    "type": "Feature",
    "geometry": {
       "type": "Point",
       "coordinates":  [ -65.3299506,-43.25003579 ]
    },
    "properties": {
    "city":"Trelew",
    "city_ascii":"Trelew",
    "pop":93128.5,
    "country":"Argentina",
    "iso2":"AR",
    "iso3":"ARG",
    "province":"Chubut"
    }
  },
  {
    "type": "Feature",
    "geometry": {
       "type": "Point",
       "coordinates":  [ -68.80167668,-32.82503904 ]
    },
    "properties": {
    "city":"Las Heras",
    "city_ascii":"Las Heras",
    "pop":66663,
    "country":"Argentina",
    "iso2":"AR",
    "iso3":"ARG",
    "province":"Mendoza"
    }
  },
  {
    "type": "Feature",
    "geometry": {
       "type": "Point",
       "coordinates":  [ -68.49001612,-33.06998533 ]
    },
    "properties": {
    "city":"San Martin",
    "city_ascii":"San Martin",
    "pop":99974,
    "country":"Argentina",
    "iso2":"AR",
    "iso3":"ARG",
    "province":"Mendoza"
    }
  },
  {
    "type": "Feature",
    "geometry": {
       "type": "Point",
       "coordinates":  [ -69.34598454,-32.59311522 ]
    },
    "properties": {
    "city":"Uspallata",
    "city_ascii":"Uspallata",
    "pop":2390,
    "country":"Argentina",
    "iso2":"AR",
    "iso3":"ARG",
    "province":"Mendoza"
    }
  },
  {
    "type": "Feature",
    "geometry": {
       "type": "Point",
       "coordinates":  [ -69.24002202,-38.94001463 ]
    },
    "properties": {
    "city":"Cutral Co",
    "city_ascii":"Cutral Co",
    "pop":47597,
    "country":"Argentina",
    "iso2":"AR",
    "iso3":"ARG",
    "province":"Neuquén"
    }
  },
  {
    "type": "Feature",
    "geometry": {
       "type": "Point",
       "coordinates":  [ -62.0799681,-38.87996662 ]
    },
    "properties": {
    "city":"Punta Alta",
    "city_ascii":"Punta Alta",
    "pop":55969.5,
    "country":"Argentina",
    "iso2":"AR",
    "iso3":"ARG",
    "province":"Ciudad de Buenos Aires"
    }
  },
  {
    "type": "Feature",
    "geometry": {
       "type": "Point",
       "coordinates":  [ -60.24000289,-33.33002114 ]
    },
    "properties": {
    "city":"San Nicolas",
    "city_ascii":"San Nicolas",
    "pop":117123.5,
    "country":"Argentina",
    "iso2":"AR",
    "iso3":"ARG",
    "province":"Ciudad de Buenos Aires"
    }
  },
  {
    "type": "Feature",
    "geometry": {
       "type": "Point",
       "coordinates":  [ -58.95997766,-34.15999632 ]
    },
    "properties": {
    "city":"Campana",
    "city_ascii":"Campana",
    "pop":77149.5,
    "country":"Argentina",
    "iso2":"AR",
    "iso3":"ARG",
    "province":"Ciudad de Buenos Aires"
    }
  },
  {
    "type": "Feature",
    "geometry": {
       "type": "Point",
       "coordinates":  [ -60.48998763,-34.65004393 ]
    },
    "properties": {
    "city":"Chacabuco",
    "city_ascii":"Chacabuco",
    "pop":26645,
    "country":"Argentina",
    "iso2":"AR",
    "iso3":"ARG",
    "province":"Ciudad de Buenos Aires"
    }
  },
  {
    "type": "Feature",
    "geometry": {
       "type": "Point",
       "coordinates":  [ -59.44002588,-34.66001748 ]
    },
    "properties": {
    "city":"Mercedes",
    "city_ascii":"Mercedes",
    "pop":48408.5,
    "country":"Argentina",
    "iso2":"AR",
    "iso3":"ARG",
    "province":"Ciudad de Buenos Aires"
    }
  },
  {
    "type": "Feature",
    "geometry": {
       "type": "Point",
       "coordinates":  [ -61.53994938,-34.88000405 ]
    },
    "properties": {
    "city":"Lincoln",
    "city_ascii":"Lincoln",
    "pop":19924,
    "country":"Argentina",
    "iso2":"AR",
    "iso3":"ARG",
    "province":"Ciudad de Buenos Aires"
    }
  },
  {
    "type": "Feature",
    "geometry": {
       "type": "Point",
       "coordinates":  [ -60.03998926,-34.89995115 ]
    },
    "properties": {
    "city":"Chivilcoy",
    "city_ascii":"Chivilcoy",
    "pop":43719,
    "country":"Argentina",
    "iso2":"AR",
    "iso3":"ARG",
    "province":"Ciudad de Buenos Aires"
    }
  },
  {
    "type": "Feature",
    "geometry": {
       "type": "Point",
       "coordinates":  [ -60.17998071,-35.42999632 ]
    },
    "properties": {
    "city":"Veinticinco de Mayo",
    "city_ascii":"Veinticinco de Mayo",
    "pop":18749,
    "country":"Argentina",
    "iso2":"AR",
    "iso3":"ARG",
    "province":"Ciudad de Buenos Aires"
    }
  },
  {
    "type": "Feature",
    "geometry": {
       "type": "Point",
       "coordinates":  [ -60.88998906,-35.44596434 ]
    },
    "properties": {
    "city":"Nueve de Julio",
    "city_ascii":"Nueve de Julio",
    "pop":26716,
    "country":"Argentina",
    "iso2":"AR",
    "iso3":"ARG",
    "province":"Ciudad de Buenos Aires"
    }
  },
  {
    "type": "Feature",
    "geometry": {
       "type": "Point",
       "coordinates":  [ -57.68997766,-36.33004474 ]
    },
    "properties": {
    "city":"Dolores",
    "city_ascii":"Dolores",
    "pop":21586.5,
    "country":"Argentina",
    "iso2":"AR",
    "iso3":"ARG",
    "province":"Ciudad de Buenos Aires"
    }
  },
  {
    "type": "Feature",
    "geometry": {
       "type": "Point",
       "coordinates":  [ -62.68331629,-39.48334064 ]
    },
    "properties": {
    "city":"Pedro Luro",
    "city_ascii":"Pedro Luro",
    "pop":7100,
    "country":"Argentina",
    "iso2":"AR",
    "iso3":"ARG",
    "province":"Ciudad de Buenos Aires"
    }
  },
  {
    "type": "Feature",
    "geometry": {
       "type": "Point",
       "coordinates":  [ -60.26994938,-38.3699719 ]
    },
    "properties": {
    "city":"Tres Arroyos",
    "city_ascii":"Tres Arroyos",
    "pop":34773.5,
    "country":"Argentina",
    "iso2":"AR",
    "iso3":"ARG",
    "province":"Ciudad de Buenos Aires"
    }
  },
  {
    "type": "Feature",
    "geometry": {
       "type": "Point",
       "coordinates":  [ -61.9166189,-37.46661619 ]
    },
    "properties": {
    "city":"Coronel Suarez",
    "city_ascii":"Coronel Suarez",
    "pop":20713,
    "country":"Argentina",
    "iso2":"AR",
    "iso3":"ARG",
    "province":"Ciudad de Buenos Aires"
    }
  },
  {
    "type": "Feature",
    "geometry": {
       "type": "Point",
       "coordinates":  [ -58.24999516,-37.83331216 ]
    },
    "properties": {
    "city":"Balcarce",
    "city_ascii":"Balcarce",
    "pop":18967,
    "country":"Argentina",
    "iso2":"AR",
    "iso3":"ARG",
    "province":"Ciudad de Buenos Aires"
    }
  },
  {
    "type": "Feature",
    "geometry": {
       "type": "Point",
       "coordinates":  [ -67.68329533,-37.80003253 ]
    },
    "properties": {
    "city":"25 de Mayo",
    "city_ascii":"25 de Mayo",
    "pop":17430,
    "country":"Argentina",
    "iso2":"AR",
    "iso3":"ARG",
    "province":"Río Negro"
    }
  },
  {
    "type": "Feature",
    "geometry": {
       "type": "Point",
       "coordinates":  [ -67.60996647,-39.01995807 ]
    },
    "properties": {
    "city":"General Roca",
    "city_ascii":"General Roca",
    "pop":38578,
    "country":"Argentina",
    "iso2":"AR",
    "iso3":"ARG",
    "province":"Río Negro"
    }
  },
  {
    "type": "Feature",
    "geometry": {
       "type": "Point",
       "coordinates":  [ -70.26657434,-41.03332355 ]
    },
    "properties": {
    "city":"Comallo",
    "city_ascii":"Comallo",
    "pop":741,
    "country":"Argentina",
    "iso2":"AR",
    "iso3":"ARG",
    "province":"Río Negro"
    }
  },
  {
    "type": "Feature",
    "geometry": {
       "type": "Point",
       "coordinates":  [ -69.58330855,-41.30002562 ]
    },
    "properties": {
    "city":"Ingeniero Jacobacci",
    "city_ascii":"Ingeniero Jacobacci",
    "pop":5719,
    "country":"Argentina",
    "iso2":"AR",
    "iso3":"ARG",
    "province":"Río Negro"
    }
  },
  {
    "type": "Feature",
    "geometry": {
       "type": "Point",
       "coordinates":  [ -64.43328699,-40.10004718 ]
    },
    "properties": {
    "city":"General Conesa",
    "city_ascii":"General Conesa",
    "pop":2958,
    "country":"Argentina",
    "iso2":"AR",
    "iso3":"ARG",
    "province":"Río Negro"
    }
  },
  {
    "type": "Feature",
    "geometry": {
       "type": "Point",
       "coordinates":  [ -65.68331405,-39.26660968 ]
    },
    "properties": {
    "city":"Choele Choel",
    "city_ascii":"Choele Choel",
    "pop":9895.5,
    "country":"Argentina",
    "iso2":"AR",
    "iso3":"ARG",
    "province":"Río Negro"
    }
  },
  {
    "type": "Feature",
    "geometry": {
       "type": "Point",
       "coordinates":  [ -62.08996749,-31.43003375 ]
    },
    "properties": {
    "city":"San Francisco",
    "city_ascii":"San Francisco",
    "pop":43231,
    "country":"Argentina",
    "iso2":"AR",
    "iso3":"ARG",
    "province":"Córdoba"
    }
  },
  {
    "type": "Feature",
    "geometry": {
       "type": "Point",
       "coordinates":  [ -64.4299797,-31.65999388 ]
    },
    "properties": {
    "city":"Alta Gracia",
    "city_ascii":"Alta Gracia",
    "pop":30593,
    "country":"Argentina",
    "iso2":"AR",
    "iso3":"ARG",
    "province":"Córdoba"
    }
  },
  {
    "type": "Feature",
    "geometry": {
       "type": "Point",
       "coordinates":  [ -63.26002527,-32.41002562 ]
    },
    "properties": {
    "city":"Villa Maria",
    "city_ascii":"Villa Maria",
    "pop":76701,
    "country":"Argentina",
    "iso2":"AR",
    "iso3":"ARG",
    "province":"Córdoba"
    }
  },
  {
    "type": "Feature",
    "geometry": {
       "type": "Point",
       "coordinates":  [ -62.67995732,-32.60003986 ]
    },
    "properties": {
    "city":"Bell Ville",
    "city_ascii":"Bell Ville",
    "pop":29605,
    "country":"Argentina",
    "iso2":"AR",
    "iso3":"ARG",
    "province":"Córdoba"
    }
  },
  {
    "type": "Feature",
    "geometry": {
       "type": "Point",
       "coordinates":  [ -64.48328394,-32.18332111 ]
    },
    "properties": {
    "city":"Villa Rumipal",
    "city_ascii":"Villa Rumipal",
    "pop":1269,
    "country":"Argentina",
    "iso2":"AR",
    "iso3":"ARG",
    "province":"Córdoba"
    }
  },
  {
    "type": "Feature",
    "geometry": {
       "type": "Point",
       "coordinates":  [ -64.50000126,-31.42000853 ]
    },
    "properties": {
    "city":"Villa Carlos Paz",
    "city_ascii":"Villa Carlos Paz",
    "pop":60256,
    "country":"Argentina",
    "iso2":"AR",
    "iso3":"ARG",
    "province":"Córdoba"
    }
  },
  {
    "type": "Feature",
    "geometry": {
       "type": "Point",
       "coordinates":  [ -66.23330632,-28.86662433 ]
    },
    "properties": {
    "city":"Chumbicha",
    "city_ascii":"Chumbicha",
    "pop":2572,
    "country":"Argentina",
    "iso2":"AR",
    "iso3":"ARG",
    "province":"Catamarca"
    }
  },
  {
    "type": "Feature",
    "geometry": {
       "type": "Point",
       "coordinates":  [ -67.56658411,-28.06662148 ]
    },
    "properties": {
    "city":"Tinogasta",
    "city_ascii":"Tinogasta",
    "pop":587,
    "country":"Argentina",
    "iso2":"AR",
    "iso3":"ARG",
    "province":"Catamarca"
    }
  },
  {
    "type": "Feature",
    "geometry": {
       "type": "Point",
       "coordinates":  [ -65.6999797,-22.7166638 ]
    },
    "properties": {
    "city":"Abra Pampa",
    "city_ascii":"Abra Pampa",
    "pop":4480,
    "country":"Argentina",
    "iso2":"AR",
    "iso3":"ARG",
    "province":"Jujuy"
    }
  },
  {
    "type": "Feature",
    "geometry": {
       "type": "Point",
       "coordinates":  [ -65.34994938,-23.19999347 ]
    },
    "properties": {
    "city":"Humahuaca",
    "city_ascii":"Humahuaca",
    "pop":11369,
    "country":"Argentina",
    "iso2":"AR",
    "iso3":"ARG",
    "province":"Jujuy"
    }
  },
  {
    "type": "Feature",
    "geometry": {
       "type": "Point",
       "coordinates":  [ -66.4833169,-23.41667275 ]
    },
    "properties": {
    "city":"Susques",
    "city_ascii":"Susques",
    "pop":1093,
    "country":"Argentina",
    "iso2":"AR",
    "iso3":"ARG",
    "province":"Jujuy"
    }
  },
  {
    "type": "Feature",
    "geometry": {
       "type": "Point",
       "coordinates":  [ -66.5999506,-31.34998696 ]
    },
    "properties": {
    "city":"Chepes",
    "city_ascii":"Chepes",
    "pop":6020,
    "country":"Argentina",
    "iso2":"AR",
    "iso3":"ARG",
    "province":"La Rioja"
    }
  },
  {
    "type": "Feature",
    "geometry": {
       "type": "Point",
       "coordinates":  [ -63.69999841,-22.03003904 ]
    },
    "properties": {
    "city":"Yacuiba",
    "city_ascii":"Yacuiba",
    "pop":64811,
    "country":"Argentina",
    "iso2":"AR",
    "iso3":"ARG",
    "province":"Salta"
    }
  },
  {
    "type": "Feature",
    "geometry": {
       "type": "Point",
       "coordinates":  [ -63.81001754,-22.55000731 ]
    },
    "properties": {
    "city":"Tartagal",
    "city_ascii":"Tartagal",
    "pop":59996.5,
    "country":"Argentina",
    "iso2":"AR",
    "iso3":"ARG",
    "province":"Salta"
    }
  },
  {
    "type": "Feature",
    "geometry": {
       "type": "Point",
       "coordinates":  [ -64.18335392,-25.08334105 ]
    },
    "properties": {
    "city":"Joaquin V. Gonzalez",
    "city_ascii":"Joaquin V. Gonzalez",
    "pop":13376,
    "country":"Argentina",
    "iso2":"AR",
    "iso3":"ARG",
    "province":"Salta"
    }
  },
  {
    "type": "Feature",
    "geometry": {
       "type": "Point",
       "coordinates":  [ -65.04996769,-24.6666223 ]
    },
    "properties": {
    "city":"General Guemes",
    "city_ascii":"General Guemes",
    "pop":19828,
    "country":"Argentina",
    "iso2":"AR",
    "iso3":"ARG",
    "province":"Salta"
    }
  },
  {
    "type": "Feature",
    "geometry": {
       "type": "Point",
       "coordinates":  [ -65.28331262,-26.21665688 ]
    },
    "properties": {
    "city":"Trancas",
    "city_ascii":"Trancas",
    "pop":1599,
    "country":"Argentina",
    "iso2":"AR",
    "iso3":"ARG",
    "province":"Tucumán"
    }
  },
  {
    "type": "Feature",
    "geometry": {
       "type": "Point",
       "coordinates":  [ -60.45001591,-26.7900069 ]
    },
    "properties": {
    "city":"Presidencia Roque Saenz Pena",
    "city_ascii":"Presidencia Roque Saenz Pena",
    "pop":75958,
    "country":"Argentina",
    "iso2":"AR",
    "iso3":"ARG",
    "province":"Chaco"
    }
  },
  {
    "type": "Feature",
    "geometry": {
       "type": "Point",
       "coordinates":  [ -61.16658716,-26.51658689 ]
    },
    "properties": {
    "city":"Pampa del Infierno",
    "city_ascii":"Pampa del Infierno",
    "pop":2921,
    "country":"Argentina",
    "iso2":"AR",
    "iso3":"ARG",
    "province":"Chaco"
    }
  },
  {
    "type": "Feature",
    "geometry": {
       "type": "Point",
       "coordinates":  [ -60.7166663,-27.58329181 ]
    },
    "properties": {
    "city":"Villa Angela",
    "city_ascii":"Villa Angela",
    "pop":30051,
    "country":"Argentina",
    "iso2":"AR",
    "iso3":"ARG",
    "province":"Chaco"
    }
  },
  {
    "type": "Feature",
    "geometry": {
       "type": "Point",
       "coordinates":  [ -61.84998214,-23.90000242 ]
    },
    "properties": {
    "city":"Ingeniero Guillermo N. Juarez",
    "city_ascii":"Ingeniero Guillermo N. Juarez",
    "pop":6453,
    "country":"Argentina",
    "iso2":"AR",
    "iso3":"ARG",
    "province":"Formosa"
    }
  },
  {
    "type": "Feature",
    "geometry": {
       "type": "Point",
       "coordinates":  [ -59.68331852,-25.33329995 ]
    },
    "properties": {
    "city":"Comandante Fontana",
    "city_ascii":"Comandante Fontana",
    "pop":4277,
    "country":"Argentina",
    "iso2":"AR",
    "iso3":"ARG",
    "province":"Formosa"
    }
  },
  {
    "type": "Feature",
    "geometry": {
       "type": "Point",
       "coordinates":  [ -62.29998051,-22.47998574 ]
    },
    "properties": {
    "city":"Doctor Pedro P. Pena",
    "city_ascii":"Doctor Pedro P. Pena",
    "pop":6143,
    "country":"Argentina",
    "iso2":"AR",
    "iso3":"ARG",
    "province":"Formosa"
    }
  },
  {
    "type": "Feature",
    "geometry": {
       "type": "Point",
       "coordinates":  [ -58.76998926,-28.12000324 ]
    },
    "properties": {
    "city":"San Lorenzo",
    "city_ascii":"San Lorenzo",
    "pop":25833.5,
    "country":"Argentina",
    "iso2":"AR",
    "iso3":"ARG",
    "province":"Corrientes"
    }
  },
  {
    "type": "Feature",
    "geometry": {
       "type": "Point",
       "coordinates":  [ -58.80998682,-27.48996417 ]
    },
    "properties": {
    "city":"Corrientes",
    "city_ascii":"Corrientes",
    "pop":339945,
    "country":"Argentina",
    "iso2":"AR",
    "iso3":"ARG",
    "province":"Corrientes"
    }
  },
  {
    "type": "Feature",
    "geometry": {
       "type": "Point",
       "coordinates":  [ -58.23999577,-32.47999551 ]
    },
    "properties": {
    "city":"Concepcion del Uruguay",
    "city_ascii":"Concepcion del Uruguay",
    "pop":48275,
    "country":"Argentina",
    "iso2":"AR",
    "iso3":"ARG",
    "province":"Entre Ríos"
    }
  },
  {
    "type": "Feature",
    "geometry": {
       "type": "Point",
       "coordinates":  [ -60.17998071,-32.61001341 ]
    },
    "properties": {
    "city":"Victoria",
    "city_ascii":"Victoria",
    "pop":20032.5,
    "country":"Argentina",
    "iso2":"AR",
    "iso3":"ARG",
    "province":"Entre Ríos"
    }
  },
  {
    "type": "Feature",
    "geometry": {
       "type": "Point",
       "coordinates":  [ -59.34000615,-33.15003213 ]
    },
    "properties": {
    "city":"Gualeguay",
    "city_ascii":"Gualeguay",
    "pop":25913,
    "country":"Argentina",
    "iso2":"AR",
    "iso3":"ARG",
    "province":"Entre Ríos"
    }
  },
  {
    "type": "Feature",
    "geometry": {
       "type": "Point",
       "coordinates":  [ -60.53334416,-31.73332273 ]
    },
    "properties": {
    "city":"Parana",
    "city_ascii":"Parana",
    "pop":226852,
    "country":"Argentina",
    "iso2":"AR",
    "iso3":"ARG",
    "province":"Entre Ríos"
    }
  },
  {
    "type": "Feature",
    "geometry": {
       "type": "Point",
       "coordinates":  [ -60.35002202,-33.23002724 ]
    },
    "properties": {
    "city":"Villa Constitucion",
    "city_ascii":"Villa Constitucion",
    "pop":30282.5,
    "country":"Argentina",
    "iso2":"AR",
    "iso3":"ARG",
    "province":"Santa Fe"
    }
  },
  {
    "type": "Feature",
    "geometry": {
       "type": "Point",
       "coordinates":  [ -61.49997766,-31.25004474 ]
    },
    "properties": {
    "city":"Rafaela",
    "city_ascii":"Rafaela",
    "pop":69649,
    "country":"Argentina",
    "iso2":"AR",
    "iso3":"ARG",
    "province":"Santa Fe"
    }
  },
  {
    "type": "Feature",
    "geometry": {
       "type": "Point",
       "coordinates":  [ -54.59998539,-26.20001707 ]
    },
    "properties": {
    "city":"Eldorado",
    "city_ascii":"Eldorado",
    "pop":17365,
    "country":"Argentina",
    "iso2":"AR",
    "iso3":"ARG",
    "province":"Misiones"
    }
  },
  {
    "type": "Feature",
    "geometry": {
       "type": "Point",
       "coordinates":  [ -69.1399506,-30.21558592 ]
    },
    "properties": {
    "city":"Rodeo",
    "city_ascii":"Rodeo",
    "pop":701,
    "country":"Argentina",
    "iso2":"AR",
    "iso3":"ARG",
    "province":"San Juan"
    }
  },
  {
    "type": "Feature",
    "geometry": {
       "type": "Point",
       "coordinates":  [ -67.24998845,-43.41627887 ]
    },
    "properties": {
    "city":"Las Plumas",
    "city_ascii":"Las Plumas",
    "pop":605,
    "country":"Argentina",
    "iso2":"AR",
    "iso3":"ARG",
    "province":"Chubut"
    }
  },
  {
    "type": "Feature",
    "geometry": {
       "type": "Point",
       "coordinates":  [ -69.23330408,-42.28296303 ]
    },
    "properties": {
    "city":"Gastre",
    "city_ascii":"Gastre",
    "pop":557,
    "country":"Argentina",
    "iso2":"AR",
    "iso3":"ARG",
    "province":"Chubut"
    }
  },
  {
    "type": "Feature",
    "geometry": {
       "type": "Point",
       "coordinates":  [ -66.95000676,-42.39959674 ]
    },
    "properties": {
    "city":"Telsen",
    "city_ascii":"Telsen",
    "pop":493,
    "country":"Argentina",
    "iso2":"AR",
    "iso3":"ARG",
    "province":"Chubut"
    }
  },
  {
    "type": "Feature",
    "geometry": {
       "type": "Point",
       "coordinates":  [ -69.58330855,-35.46611815 ]
    },
    "properties": {
    "city":"Malargue",
    "city_ascii":"Malargue",
    "pop":11847,
    "country":"Argentina",
    "iso2":"AR",
    "iso3":"ARG",
    "province":"Mendoza"
    }
  },
  {
    "type": "Feature",
    "geometry": {
       "type": "Point",
       "coordinates":  [ -69.01667647,-33.56618244 ]
    },
    "properties": {
    "city":"Tunuyan",
    "city_ascii":"Tunuyan",
    "pop":22834,
    "country":"Argentina",
    "iso2":"AR",
    "iso3":"ARG",
    "province":"Mendoza"
    }
  },
  {
    "type": "Feature",
    "geometry": {
       "type": "Point",
       "coordinates":  [ -67.54999597,-33.46613686 ]
    },
    "properties": {
    "city":"La Paz",
    "city_ascii":"La Paz",
    "pop":4400,
    "country":"Argentina",
    "iso2":"AR",
    "iso3":"ARG",
    "province":"Mendoza"
    }
  },
  {
    "type": "Feature",
    "geometry": {
       "type": "Point",
       "coordinates":  [ -70.26657434,-37.38295205 ]
    },
    "properties": {
    "city":"Chos Malal",
    "city_ascii":"Chos Malal",
    "pop":8556,
    "country":"Argentina",
    "iso2":"AR",
    "iso3":"ARG",
    "province":"Neuquén"
    }
  },
  {
    "type": "Feature",
    "geometry": {
       "type": "Point",
       "coordinates":  [ -70.36659408,-38.51626788 ]
    },
    "properties": {
    "city":"Las Lajas",
    "city_ascii":"Las Lajas",
    "pop":1218,
    "country":"Argentina",
    "iso2":"AR",
    "iso3":"ARG",
    "province":"Neuquén"
    }
  },
  {
    "type": "Feature",
    "geometry": {
       "type": "Point",
       "coordinates":  [ -59.04002446,-34.08956134 ]
    },
    "properties": {
    "city":"Zarate",
    "city_ascii":"Zarate",
    "pop":86192,
    "country":"Argentina",
    "iso2":"AR",
    "iso3":"ARG",
    "province":"Ciudad de Buenos Aires"
    }
  },
  {
    "type": "Feature",
    "geometry": {
       "type": "Point",
       "coordinates":  [ -62.73331323,-37.1828609 ]
    },
    "properties": {
    "city":"Carhue",
    "city_ascii":"Carhue",
    "pop":7190,
    "country":"Argentina",
    "iso2":"AR",
    "iso3":"ARG",
    "province":"Ciudad de Buenos Aires"
    }
  },
  {
    "type": "Feature",
    "geometry": {
       "type": "Point",
       "coordinates":  [ -63.16659428,-37.69957355 ]
    },
    "properties": {
    "city":"Darregueira",
    "city_ascii":"Darregueira",
    "pop":3412,
    "country":"Argentina",
    "iso2":"AR",
    "iso3":"ARG",
    "province":"Ciudad de Buenos Aires"
    }
  },
  {
    "type": "Feature",
    "geometry": {
       "type": "Point",
       "coordinates":  [ -59.80002975,-37.66551878 ]
    },
    "properties": {
    "city":"Juarez",
    "city_ascii":"Juarez",
    "pop":10609,
    "country":"Argentina",
    "iso2":"AR",
    "iso3":"ARG",
    "province":"Ciudad de Buenos Aires"
    }
  },
  {
    "type": "Feature",
    "geometry": {
       "type": "Point",
       "coordinates":  [ -56.67660283,-36.71622272 ]
    },
    "properties": {
    "city":"Mar de Ajo",
    "city_ascii":"Mar de Ajo",
    "pop":13610,
    "country":"Argentina",
    "iso2":"AR",
    "iso3":"ARG",
    "province":"Ciudad de Buenos Aires"
    }
  },
  {
    "type": "Feature",
    "geometry": {
       "type": "Point",
       "coordinates":  [ -59.09467228,-35.184895 ]
    },
    "properties": {
    "city":"Lobos",
    "city_ascii":"Lobos",
    "pop":18278,
    "country":"Argentina",
    "iso2":"AR",
    "iso3":"ARG",
    "province":"Ciudad de Buenos Aires"
    }
  },
  {
    "type": "Feature",
    "geometry": {
       "type": "Point",
       "coordinates":  [ -58.01662439,-35.56621539 ]
    },
    "properties": {
    "city":"Chascomus",
    "city_ascii":"Chascomus",
    "pop":21054,
    "country":"Argentina",
    "iso2":"AR",
    "iso3":"ARG",
    "province":"Ciudad de Buenos Aires"
    }
  },
  {
    "type": "Feature",
    "geometry": {
       "type": "Point",
       "coordinates":  [ -60.95887374,-34.58456989 ]
    },
    "properties": {
    "city":"Junin",
    "city_ascii":"Junin",
    "pop":66141.5,
    "country":"Argentina",
    "iso2":"AR",
    "iso3":"ARG",
    "province":"Ciudad de Buenos Aires"
    }
  },
  {
    "type": "Feature",
    "geometry": {
       "type": "Point",
       "coordinates":  [ -57.95996118,-34.90961465 ]
    },
    "properties": {
    "city":"La Plata",
    "city_ascii":"La Plata",
    "pop":440388.5,
    "country":"Argentina",
    "iso2":"AR",
    "iso3":"ARG",
    "province":"Ciudad de Buenos Aires"
    }
  },
  {
    "type": "Feature",
    "geometry": {
       "type": "Point",
       "coordinates":  [ -60.56998275,-33.89959878 ]
    },
    "properties": {
    "city":"Pergamino",
    "city_ascii":"Pergamino",
    "pop":71448,
    "country":"Argentina",
    "iso2":"AR",
    "iso3":"ARG",
    "province":"Ciudad de Buenos Aires"
    }
  },
  {
    "type": "Feature",
    "geometry": {
       "type": "Point",
       "coordinates":  [ -59.10999435,-34.57960895 ]
    },
    "properties": {
    "city":"Lujan",
    "city_ascii":"Lujan",
    "pop":69744.5,
    "country":"Argentina",
    "iso2":"AR",
    "iso3":"ARG",
    "province":"Ciudad de Buenos Aires"
    }
  },
  {
    "type": "Feature",
    "geometry": {
       "type": "Point",
       "coordinates":  [ -59.86999964,-36.7796297 ]
    },
    "properties": {
    "city":"Azul",
    "city_ascii":"Azul",
    "pop":43407.5,
    "country":"Argentina",
    "iso2":"AR",
    "iso3":"ARG",
    "province":"Ciudad de Buenos Aires"
    }
  },
  {
    "type": "Feature",
    "geometry": {
       "type": "Point",
       "coordinates":  [ -62.58332239,-39.88285114 ]
    },
    "properties": {
    "city":"Villalonga",
    "city_ascii":"Villalonga",
    "pop":2838,
    "country":"Argentina",
    "iso2":"AR",
    "iso3":"ARG",
    "province":"Ciudad de Buenos Aires"
    }
  },
  {
    "type": "Feature",
    "geometry": {
       "type": "Point",
       "coordinates":  [ -65.45002079,-36.21625324 ]
    },
    "properties": {
    "city":"Victorica",
    "city_ascii":"Victorica",
    "pop":4458,
    "country":"Argentina",
    "iso2":"AR",
    "iso3":"ARG",
    "province":"La Pampa"
    }
  },
  {
    "type": "Feature",
    "geometry": {
       "type": "Point",
       "coordinates":  [ -63.77001998,-35.65959471 ]
    },
    "properties": {
    "city":"General Pico",
    "city_ascii":"General Pico",
    "pop":46483,
    "country":"Argentina",
    "iso2":"AR",
    "iso3":"ARG",
    "province":"La Pampa"
    }
  },
  {
    "type": "Feature",
    "geometry": {
       "type": "Point",
       "coordinates":  [ -64.93328231,-40.73287677 ]
    },
    "properties": {
    "city":"San Antonio Oeste",
    "city_ascii":"San Antonio Oeste",
    "pop":8492,
    "country":"Argentina",
    "iso2":"AR",
    "iso3":"ARG",
    "province":"Río Negro"
    }
  },
  {
    "type": "Feature",
    "geometry": {
       "type": "Point",
       "coordinates":  [ -67.79998071,-40.58286009 ]
    },
    "properties": {
    "city":"Sierra Colorado",
    "city_ascii":"Sierra Colorado",
    "pop":1522,
    "country":"Argentina",
    "iso2":"AR",
    "iso3":"ARG",
    "province":"Río Negro"
    }
  },
  {
    "type": "Feature",
    "geometry": {
       "type": "Point",
       "coordinates":  [ -65.4699679,-33.68958576 ]
    },
    "properties": {
    "city":"Mercedes",
    "city_ascii":"Mercedes",
    "pop":49345,
    "country":"Argentina",
    "iso2":"AR",
    "iso3":"ARG",
    "province":"San Luis"
    }
  },
  {
    "type": "Feature",
    "geometry": {
       "type": "Point",
       "coordinates":  [ -64.12002446,-32.1796004 ]
    },
    "properties": {
    "city":"Rio Tercero",
    "city_ascii":"Rio Tercero",
    "pop":38049.5,
    "country":"Argentina",
    "iso2":"AR",
    "iso3":"ARG",
    "province":"Córdoba"
    }
  },
  {
    "type": "Feature",
    "geometry": {
       "type": "Point",
       "coordinates":  [ -67.03328333,-27.64959267 ]
    },
    "properties": {
    "city":"Belen",
    "city_ascii":"Belen",
    "pop":11359,
    "country":"Argentina",
    "iso2":"AR",
    "iso3":"ARG",
    "province":"Catamarca"
    }
  },
  {
    "type": "Feature",
    "geometry": {
       "type": "Point",
       "coordinates":  [ -66.16659204,-22.43290851 ]
    },
    "properties": {
    "city":"Rinconada",
    "city_ascii":"Rinconada",
    "pop":6209.5,
    "country":"Argentina",
    "iso2":"AR",
    "iso3":"ARG",
    "province":"Jujuy"
    }
  },
  {
    "type": "Feature",
    "geometry": {
       "type": "Point",
       "coordinates":  [ -64.87000452,-24.21962116 ]
    },
    "properties": {
    "city":"San Pedro",
    "city_ascii":"San Pedro",
    "pop":55249,
    "country":"Argentina",
    "iso2":"AR",
    "iso3":"ARG",
    "province":"Jujuy"
    }
  },
  {
    "type": "Feature",
    "geometry": {
       "type": "Point",
       "coordinates":  [ -64.78998356,-23.81954222 ]
    },